{"type": "FeatureCollection", "features": [{"type": "Feature", "geometry": {"type": "Point", "coordinates": [2.417071454431694, 49.21379460642065]}, "properties": {"zdaname": "Saint-Leu-d’Esserent", "zdatype": "railStation"}}, {"type": "Feature", "geometry": {"type": "Point", "coordinates": [2.7941647655566535, 49.14251123380041]}, "properties": {"zdaname": "Nanteuil-le-Haudouin", "zdatype": "railStation"}}, {"type": "Feature", "geometry": {"type": "Point", "coordinates": [2.357252641432147, 48.92980264562672]}, "properties": {"zdaname": "Saint-Denis – Porte de Paris", "zdatype": "onstreetTram"}}, {"type": "Feature", "geometry": {"type": "Point", "coordinates": [2.3527484944235355, 48.93200864275446]}, "properties": {"zdaname": "Pierre de Geyter", "zdatype": "onstreetTram"}}, {"type": "Feature", "geometry": {"type": "Point", "coordinates": [2.465391161995224, 48.90036938992788]}, "properties": {"zdaname": "Petit Noisy", "zdatype": "onstreetTram"}}, {"type": "Feature", "geometry": {"type": "Point", "coordinates": [2.313263491797532, 48.9339381951845]}, "properties": {"zdaname": "Parc des Chanteraines", "zdatype": "onstreetTram"}}, {"type": "Feature", "geometry": {"type": "Point", "coordinates": [2.294626008491221, 48.93335332614836]}, "properties": {"zdaname": "Le Village", "zdatype": "onstreetTram"}}, {"type": "Feature", "geometry": {"type": "Point", "coordinates": [2.4105698620978786, 48.92080507340246]}, "properties": {"zdaname": "La Courneuve – 8 Mai 1945", "zdatype": "onstreetTram"}}, {"type": "Feature", "geometry": {"type": "Point", "coordinates": [2.8880931361246387, 49.23107365280292]}, "properties": {"zdaname": "Crépy-en-Valois", "zdatype": "railStation"}}, {"type": "Feature", "geometry": {"type": "Point", "coordinates": [1.7847612297742421, 49.28550013062285]}, "properties": {"zdaname": "Gisors", "zdatype": "railStation"}}, {"type": "Feature", "geometry": {"type": "Point", "coordinates": [1.3704315573837542, 48.73110187270358]}, "properties": {"zdaname": "Dreux", "zdatype": "railStation"}}, {"type": "Feature", "geometry": {"type": "Point", "coordinates": [2.27803679359566, 48.84716158046345]}, "properties": {"zdaname": "Javel", "zdatype": "railStation"}}, {"type": "Feature", "geometry": {"type": "Point", "coordinates": [2.28100261684163, 48.83171024205927]}, "properties": {"zdaname": "Porte d’Issy", "zdatype": "onstreetTram"}}, {"type": "Feature", "geometry": {"type": "Point", "coordinates": [2.3386216125592068, 48.82035084392618]}, "properties": {"zdaname": "Cité Universitaire", "zdatype": "onstreetTram"}}, {"type": "Feature", "geometry": {"type": "Point", "coordinates": [2.4067855097149145, 48.876899981423705]}, "properties": {"zdaname": "Porte des Lilas", "zdatype": "metroStation"}}, {"type": "Feature", "geometry": {"type": "Point", "coordinates": [2.342175836589614, 48.9596488601079]}, "properties": {"zdaname": "Villetaneuse Université", "zdatype": "onstreetTram"}}, {"type": "Feature", "geometry": {"type": "Point", "coordinates": [2.561727794571104, 48.89792786614137]}, "properties": {"zdaname": "Arboretum", "zdatype": "onstreetTram"}}, {"type": "Feature", "geometry": {"type": "Point", "coordinates": [2.5191119152202375, 48.92650570780329]}, "properties": {"zdaname": "Freinville Sevran", "zdatype": "onstreetTram"}}, {"type": "Feature", "geometry": {"type": "Point", "coordinates": [2.5163305570246077, 48.92180925246162]}, "properties": {"zdaname": "L’Abbaye", "zdatype": "onstreetTram"}}, {"type": "Feature", "geometry": {"type": "Point", "coordinates": [2.515102331814368, 48.915958923662416]}, "properties": {"zdaname": "Lycée Henri Sellier", "zdatype": "onstreetTram"}}, {"type": "Feature", "geometry": {"type": "Point", "coordinates": [2.372837696922592, 48.84500701664281]}, "properties": {"zdaname": "Gare de Lyon", "zdatype": "metroStation"}}, {"type": "Feature", "geometry": {"type": "Point", "coordinates": [2.2862088663504485, 48.92306946822528]}, "properties": {"zdaname": "Les Agnettes", "zdatype": "metroStation"}}, {"type": "Feature", "geometry": {"type": "Point", "coordinates": [2.2534581122605157, 48.95243869445705]}, "properties": {"zdaname": "Aiguillage Epinay", "zdatype": "onstreetTram"}}, {"type": "Feature", "geometry": {"type": "Point", "coordinates": [2.854152348003086, 48.88280440161704]}, "properties": {"zdaname": "Couilly – Saint-Germain – Quincy", "zdatype": "onstreetTram"}}, {"type": "Feature", "geometry": {"type": "Point", "coordinates": [2.809285919946294, 48.90274164027046]}, "properties": {"zdaname": "Esbly", "zdatype": "onstreetTram"}}, {"type": "Feature", "geometry": {"type": "Point", "coordinates": [2.352829762636084, 48.746614050875884]}, "properties": {"zdaname": "Robert Schuman", "zdatype": "onstreetTram"}}, {"type": "Feature", "geometry": {"type": "Point", "coordinates": [2.3671565201191918, 48.78320741202922]}, "properties": {"zdaname": "Lamartine", "zdatype": "onstreetTram"}}, {"type": "Feature", "geometry": {"type": "Point", "coordinates": [2.352781829238746, 48.741702846557]}, "properties": {"zdaname": "La Fraternelle", "zdatype": "onstreetTram"}}, {"type": "Feature", "geometry": {"type": "Point", "coordinates": [2.482139103178252, 48.893788103428996]}, "properties": {"zdaname": "Bondy", "zdatype": "onstreetTram"}}, {"type": "Feature", "geometry": {"type": "Point", "coordinates": [2.3469585191057147, 48.858286937253986]}, "properties": {"zdaname": "Châtelet", "zdatype": "metroStation"}}, {"type": "Feature", "geometry": {"type": "Point", "coordinates": [2.3703247057365564, 48.962767548093446]}, "properties": {"zdaname": "Pierrefitte – Stains", "zdatype": "railStation"}}, {"type": "Feature", "geometry": {"type": "Point", "coordinates": [2.105222195898199, 49.045306836347486]}, "properties": {"zdaname": "Saint-Ouen-l’Aumône", "zdatype": "railStation"}}, {"type": "Feature", "geometry": {"type": "Point", "coordinates": [2.285774636006401, 48.96365167276247]}, "properties": {"zdaname": "Saint-Gratien", "zdatype": "railStation"}}, {"type": "Feature", "geometry": {"type": "Point", "coordinates": [2.3226820650859237, 48.90455761820595]}, "properties": {"zdaname": "Saint-Ouen", "zdatype": "railStation"}}, {"type": "Feature", "geometry": {"type": "Point", "coordinates": [2.2952229911479374, 48.874172709776516]}, "properties": {"zdaname": "Charles de Gaulle – Etoile", "zdatype": "railStation"}}, {"type": "Feature", "geometry": {"type": "Point", "coordinates": [2.3296586253599774, 48.872346987839016]}, "properties": {"zdaname": "Auber", "zdatype": "railStation"}}, {"type": "Feature", "geometry": {"type": "Point", "coordinates": [2.34303004674499, 48.871503797209435]}, "properties": {"zdaname": "Grands Boulevards", "zdatype": "metroStation"}}, {"type": "Feature", "geometry": {"type": "Point", "coordinates": [2.367398730605141, 48.77894549065354]}, "properties": {"zdaname": "Domaine Chérioux", "zdatype": "onstreetTram"}}, {"type": "Feature", "geometry": {"type": "Point", "coordinates": [2.2299563222165655, 48.81887298138509]}, "properties": {"zdaname": "Gare de Bellevue", "zdatype": "railStation"}}, {"type": "Feature", "geometry": {"type": "Point", "coordinates": [2.283869023228127, 48.877909539809316]}, "properties": {"zdaname": "Porte Maillot", "zdatype": "onstreetTram"}}, {"type": "Feature", "geometry": {"type": "Point", "coordinates": [2.296597402844046, 48.887490979673075]}, "properties": {"zdaname": "Square Sainte-Odile", "zdatype": "onstreetTram"}}, {"type": "Feature", "geometry": {"type": "Point", "coordinates": [2.356693546039047, 48.882298074356356]}, "properties": {"zdaname": "Gare du Nord", "zdatype": "railStation"}}, {"type": "Feature", "geometry": {"type": "Point", "coordinates": [2.3458167760863593, 48.91882330710662]}, "properties": {"zdaname": "Saint-Denis – Pleyel", "zdatype": "metroStation"}}, {"type": "Feature", "geometry": {"type": "Point", "coordinates": [2.300756402160653, 48.75447836844632]}, "properties": {"zdaname": "Antony", "zdatype": "metroStation"}}, {"type": "Feature", "geometry": {"type": "Point", "coordinates": [1.5135716470836784, 48.768386272430185]}, "properties": {"zdaname": "Marchezais – Broué", "zdatype": "railStation"}}, {"type": "Feature", "geometry": {"type": "Point", "coordinates": [1.4777697016936873, 49.091621041466645]}, "properties": {"zdaname": "Vernon – Giverny", "zdatype": "railStation"}}, {"type": "Feature", "geometry": {"type": "Point", "coordinates": [3.364415370368458, 48.99187801732418]}, "properties": {"zdaname": "Chézy-sur-Marne", "zdatype": "railStation"}}, {"type": "Feature", "geometry": {"type": "Point", "coordinates": [3.409515903308941, 49.03793352875045]}, "properties": {"zdaname": "Château-Thierry", "zdatype": "railStation"}}, {"type": "Feature", "geometry": {"type": "Point", "coordinates": [2.4066180763280443, 48.922710054584144]}, "properties": {"zdaname": "Danton", "zdatype": "onstreetTram"}}, {"type": "Feature", "geometry": {"type": "Point", "coordinates": [2.321485628152669, 48.93459654394725]}, "properties": {"zdaname": "Chemin des Reniers", "zdatype": "onstreetTram"}}, {"type": "Feature", "geometry": {"type": "Point", "coordinates": [2.4605240915865267, 48.90669664911012]}, "properties": {"zdaname": "Auguste Delaune", "zdatype": "onstreetTram"}}, {"type": "Feature", "geometry": {"type": "Point", "coordinates": [2.3504004255265034, 48.93750856861857]}, "properties": {"zdaname": "Théâtre Gérard Philipe", "zdatype": "onstreetTram"}}, {"type": "Feature", "geometry": {"type": "Point", "coordinates": [2.4138359788310497, 48.91917538870866]}, "properties": {"zdaname": "Maurice Lachâtre", "zdatype": "onstreetTram"}}, {"type": "Feature", "geometry": {"type": "Point", "coordinates": [2.334330947347798, 48.93559484484001]}, "properties": {"zdaname": "Mairie de Villeneuve-la-Garenne", "zdatype": "onstreetTram"}}, {"type": "Feature", "geometry": {"type": "Point", "coordinates": [2.4386255970276323, 48.90693775651123]}, "properties": {"zdaname": "Libération", "zdatype": "onstreetTram"}}, {"type": "Feature", "geometry": {"type": "Point", "coordinates": [2.3269403743070547, 48.934996009865046]}, "properties": {"zdaname": "La Noue", "zdatype": "onstreetTram"}}, {"type": "Feature", "geometry": {"type": "Point", "coordinates": [2.3021403905158873, 48.95520495198708]}, "properties": {"zdaname": "Épinay-sur-Seine", "zdatype": "onstreetTram"}}, {"type": "Feature", "geometry": {"type": "Point", "coordinates": [1.8184901511739806, 49.28240064373286]}, "properties": {"zdaname": "Trie-Château", "zdatype": "railStation"}}, {"type": "Feature", "geometry": {"type": "Point", "coordinates": [2.471072518810964, 48.75334847459547]}, "properties": {"zdaname": "Limeil-Brévannes", "zdatype": "liftStation"}}, {"type": "Feature", "geometry": {"type": "Point", "coordinates": [2.4782620078676723, 48.741705538025855]}, "properties": {"zdaname": "La Végétale", "zdatype": "liftStation"}}, {"type": "Feature", "geometry": {"type": "Point", "coordinates": [2.3286428934817898, 48.87499434687831]}, "properties": {"zdaname": "Haussmann Saint-Lazare", "zdatype": "railStation"}}, {"type": "Feature", "geometry": {"type": "Point", "coordinates": [2.5148803095437136, 48.93099403779825]}, "properties": {"zdaname": "Rougemont Chanteloup", "zdatype": "onstreetTram"}}, {"type": "Feature", "geometry": {"type": "Point", "coordinates": [2.3541113756071064, 48.869504617123496]}, "properties": {"zdaname": "Strasbourg – Saint-Denis", "zdatype": "metroStation"}}, {"type": "Feature", "geometry": {"type": "Point", "coordinates": [2.302377435029995, 48.953821447433945]}, "properties": {"zdaname": "Épinay-sur-Seine", "zdatype": "railStation"}}, {"type": "Feature", "geometry": {"type": "Point", "coordinates": [2.327556486343074, 48.87360326668289]}, "properties": {"zdaname": "Havre-Caumartin", "zdatype": "metroStation"}}, {"type": "Feature", "geometry": {"type": "Point", "coordinates": [2.8825308779964818, 48.86352745620305]}, "properties": {"zdaname": "Villiers Montbarbin", "zdatype": "onstreetTram"}}, {"type": "Feature", "geometry": {"type": "Point", "coordinates": [2.3543902704330204, 48.750202257999355]}, "properties": {"zdaname": "Saarinen", "zdatype": "onstreetTram"}}, {"type": "Feature", "geometry": {"type": "Point", "coordinates": [2.361961595619261, 48.75281533529236]}, "properties": {"zdaname": "Place de la Logistique", "zdatype": "onstreetTram"}}, {"type": "Feature", "geometry": {"type": "Point", "coordinates": [2.359493872230032, 48.739976138242945]}, "properties": {"zdaname": "Hélène Boucher", "zdatype": "onstreetTram"}}, {"type": "Feature", "geometry": {"type": "Point", "coordinates": [2.3958535489246335, 48.84843508629857]}, "properties": {"zdaname": "Nation", "zdatype": "metroStation"}}, {"type": "Feature", "geometry": {"type": "Point", "coordinates": [2.3439782846571102, 48.85358500993072]}, "properties": {"zdaname": "Saint-Michel", "zdatype": "metroStation"}}, {"type": "Feature", "geometry": {"type": "Point", "coordinates": [2.4107373751418497, 48.852988084098534]}, "properties": {"zdaname": "Porte de Montreuil", "zdatype": "onstreetTram"}}, {"type": "Feature", "geometry": {"type": "Point", "coordinates": [2.4012066840174375, 48.87947126764657]}, "properties": {"zdaname": "Hôpital Robert Debré", "zdatype": "onstreetTram"}}, {"type": "Feature", "geometry": {"type": "Point", "coordinates": [2.3967517077027596, 48.88503371839421]}, "properties": {"zdaname": "Butte du Chapeau Rouge", "zdatype": "onstreetTram"}}, {"type": "Feature", "geometry": {"type": "Point", "coordinates": [2.762650473523557, 48.14790027944169]}, "properties": {"zdaname": "Dordives", "zdatype": "railStation"}}, {"type": "Feature", "geometry": {"type": "Point", "coordinates": [1.5926330908061617, 48.586256682993294]}, "properties": {"zdaname": "Maintenon", "zdatype": "railStation"}}, {"type": "Feature", "geometry": {"type": "Point", "coordinates": [1.5243597818107448, 48.48257320192109]}, "properties": {"zdaname": "La Villette Saint-Prest", "zdatype": "railStation"}}, {"type": "Feature", "geometry": {"type": "Point", "coordinates": [1.1498558322259897, 49.01841486817869]}, "properties": {"zdaname": "Évreux Normandie", "zdatype": "railStation"}}, {"type": "Feature", "geometry": {"type": "Point", "coordinates": [1.3384331434424248, 48.073488442487616]}, "properties": {"zdaname": "Châteaudun", "zdatype": "railStation"}}, {"type": "Feature", "geometry": {"type": "Point", "coordinates": [3.1301480837827795, 48.32420613157577]}, "properties": {"zdaname": "Champigny-sur-Yonne", "zdatype": "railStation"}}, {"type": "Feature", "geometry": {"type": "Point", "coordinates": [2.561399093054099, 49.009793923290964]}, "properties": {"zdaname": "Aéroport CDG 1 (Terminal 3) – RER", "zdatype": "railStation"}}, {"type": "Feature", "geometry": {"type": "Point", "coordinates": [2.2747569756717834, 48.87035414979219]}, "properties": {"zdaname": "Porte Dauphine", "zdatype": "onstreetTram"}}, {"type": "Feature", "geometry": {"type": "Point", "coordinates": [2.3328203985410196, 48.676579319002585]}, "properties": {"zdaname": "Petit Vaux", "zdatype": "onstreetTram"}}, {"type": "Feature", "geometry": {"type": "Point", "coordinates": [2.2725692186256414, 48.72437622636166]}, "properties": {"zdaname": "Massy Europe", "zdatype": "onstreetTram"}}, {"type": "Feature", "geometry": {"type": "Point", "coordinates": [2.384209773474595, 48.838581705391256]}, "properties": {"zdaname": "Paris-Bercy Bourgogne – Pays d’Auvergne", "zdatype": "railStation"}}, {"type": "Feature", "geometry": {"type": "Point", "coordinates": [2.3587473928008373, 48.959127125274904]}, "properties": {"zdaname": "Suzanne Valadon", "zdatype": "onstreetTram"}}, {"type": "Feature", "geometry": {"type": "Point", "coordinates": [2.3660543089270996, 48.973617074741675]}, "properties": {"zdaname": "Butte Pinson", "zdatype": "onstreetTram"}}, {"type": "Feature", "geometry": {"type": "Point", "coordinates": [2.4651294466755598, 48.87804722392198]}, "properties": {"zdaname": "La Dhuys", "zdatype": "metroStation"}}, {"type": "Feature", "geometry": {"type": "Point", "coordinates": [2.427162465341121, 48.88122605608577]}, "properties": {"zdaname": "Serge Gainsbourg", "zdatype": "metroStation"}}, {"type": "Feature", "geometry": {"type": "Point", "coordinates": [2.3724255504466085, 48.74683558383986]}, "properties": {"zdaname": "Thiais – Orly", "zdatype": "metroStation"}}, {"type": "Feature", "geometry": {"type": "Point", "coordinates": [2.3550048177413854, 48.77532653741607]}, "properties": {"zdaname": "L’Haÿ-les-Roses", "zdatype": "metroStation"}}, {"type": "Feature", "geometry": {"type": "Point", "coordinates": [2.29114186328521, 48.97969038345532]}, "properties": {"zdaname": "Champ de Courses d’Enghien", "zdatype": "railStation"}}, {"type": "Feature", "geometry": {"type": "Point", "coordinates": [2.51198594493365, 48.82486245454237]}, "properties": {"zdaname": "Les Boullereaux Champigny", "zdatype": "railStation"}}, {"type": "Feature", "geometry": {"type": "Point", "coordinates": [2.4613721488624956, 48.70871081599767]}, "properties": {"zdaname": "Montgeron – Crosne", "zdatype": "railStation"}}, {"type": "Feature", "geometry": {"type": "Point", "coordinates": [2.159810135380383, 48.43705526347526]}, "properties": {"zdaname": "Étampes", "zdatype": "railStation"}}, {"type": "Feature", "geometry": {"type": "Point", "coordinates": [2.642227306997779, 48.97574793043532]}, "properties": {"zdaname": "Mitry – Claye", "zdatype": "railStation"}}, {"type": "Feature", "geometry": {"type": "Point", "coordinates": [2.425825630991127, 48.93074434035057]}, "properties": {"zdaname": "Le Bourget", "zdatype": "railStation"}}, {"type": "Feature", "geometry": {"type": "Point", "coordinates": [2.097713427948084, 48.70130664017173]}, "properties": {"zdaname": "Courcelle-sur-Yvette", "zdatype": "railStation"}}, {"type": "Feature", "geometry": {"type": "Point", "coordinates": [2.071379262887749, 48.70273264602904]}, "properties": {"zdaname": "Saint-Rémy-lès-Chevreuse", "zdatype": "railStation"}}, {"type": "Feature", "geometry": {"type": "Point", "coordinates": [2.580094477674681, 48.84289219066991]}, "properties": {"zdaname": "Noisy – Champs", "zdatype": "railStation"}}, {"type": "Feature", "geometry": {"type": "Point", "coordinates": [2.309927301923143, 48.769714103197]}, "properties": {"zdaname": "Parc de Sceaux", "zdatype": "railStation"}}, {"type": "Feature", "geometry": {"type": "Point", "coordinates": [2.6551644260196174, 48.839705641130834]}, "properties": {"zdaname": "Torcy", "zdatype": "railStation"}}, {"type": "Feature", "geometry": {"type": "Point", "coordinates": [2.3371316822359605, 48.84005686894317]}, "properties": {"zdaname": "Port Royal", "zdatype": "railStation"}}, {"type": "Feature", "geometry": {"type": "Point", "coordinates": [2.3763589022482416, 48.84339758443425]}, "properties": {"zdaname": "Gare de Lyon", "zdatype": "railStation"}}, {"type": "Feature", "geometry": {"type": "Point", "coordinates": [2.333213881034935, 48.83318190227116]}, "properties": {"zdaname": "Denfert-Rochereau", "zdatype": "railStation"}}, {"type": "Feature", "geometry": {"type": "Point", "coordinates": [2.1559355189610323, 48.88519701049976]}, "properties": {"zdaname": "Chatou – Croissy", "zdatype": "railStation"}}, {"type": "Feature", "geometry": {"type": "Point", "coordinates": [2.303073684928579, 48.889642275472454]}, "properties": {"zdaname": "Marguerite Long", "zdatype": "onstreetTram"}}, {"type": "Feature", "geometry": {"type": "Point", "coordinates": [2.2784276203941203, 48.836650299223294]}, "properties": {"zdaname": "Balard", "zdatype": "metroStation"}}, {"type": "Feature", "geometry": {"type": "Point", "coordinates": [2.081664708340498, 48.91396008912828]}, "properties": {"zdaname": "Camp des Loges", "zdatype": "onstreetTram"}}, {"type": "Feature", "geometry": {"type": "Point", "coordinates": [2.0700385818365548, 48.89491222539031]}, "properties": {"zdaname": "Fourqueux – Bel Air", "zdatype": "onstreetTram"}}, {"type": "Feature", "geometry": {"type": "Point", "coordinates": [2.0791361477955346, 48.88104250406463]}, "properties": {"zdaname": "Mareil-Marly", "zdatype": "onstreetTram"}}, {"type": "Feature", "geometry": {"type": "Point", "coordinates": [2.0615941104901068, 48.841261582184295]}, "properties": {"zdaname": "Noisy-le-Roi", "zdatype": "onstreetTram"}}, {"type": "Feature", "geometry": {"type": "Point", "coordinates": [2.078728542510472, 48.8154379470675]}, "properties": {"zdaname": "Allée Royale", "zdatype": "onstreetTram"}}, {"type": "Feature", "geometry": {"type": "Point", "coordinates": [2.3645627016855344, 48.81961911422354]}, "properties": {"zdaname": "Porte de Choisy", "zdatype": "onstreetTram"}}, {"type": "Feature", "geometry": {"type": "Point", "coordinates": [2.3746938752652222, 48.86519815381548]}, "properties": {"zdaname": "Parmentier", "zdatype": "metroStation"}}, {"type": "Feature", "geometry": {"type": "Point", "coordinates": [2.408788789318708, 48.75927138994085]}, "properties": {"zdaname": "Carle – Darthé", "zdatype": "onstreetTram"}}, {"type": "Feature", "geometry": {"type": "Point", "coordinates": [2.391979715592361, 48.785683754149744]}, "properties": {"zdaname": "Camille Groult", "zdatype": "onstreetTram"}}, {"type": "Feature", "geometry": {"type": "Point", "coordinates": [2.3320435578889827, 48.66934301347034]}, "properties": {"zdaname": "Épinay-sur-Orge", "zdatype": "railStation"}}, {"type": "Feature", "geometry": {"type": "Point", "coordinates": [2.3174447475670448, 48.803548144851376]}, "properties": {"zdaname": "Bagneux – Lucie Aubrac", "zdatype": "metroStation"}}, {"type": "Feature", "geometry": {"type": "Point", "coordinates": [2.25269187624539, 48.79005646375849]}, "properties": {"zdaname": "Jardin Parisien", "zdatype": "onstreetTram"}}, {"type": "Feature", "geometry": {"type": "Point", "coordinates": [2.254881267214021, 48.766379319069124]}, "properties": {"zdaname": "Vallée aux Loups", "zdatype": "onstreetTram"}}, {"type": "Feature", "geometry": {"type": "Point", "coordinates": [2.251900251150869, 48.77976216187855]}, "properties": {"zdaname": "Parc des Sports", "zdatype": "onstreetTram"}}, {"type": "Feature", "geometry": {"type": "Point", "coordinates": [2.377758552865005, 48.8288801225864]}, "properties": {"zdaname": "Bibliothèque François Mitterrand", "zdatype": "railStation"}}, {"type": "Feature", "geometry": {"type": "Point", "coordinates": [2.122777883156506, 48.86125145498573]}, "properties": {"zdaname": "Louveciennes", "zdatype": "railStation"}}, {"type": "Feature", "geometry": {"type": "Point", "coordinates": [2.1446722659338855, 48.94574060746957]}, "properties": {"zdaname": "Maisons-Laffitte", "zdatype": "railStation"}}, {"type": "Feature", "geometry": {"type": "Point", "coordinates": [2.525517836696695, 49.09951161811565]}, "properties": {"zdaname": "Survilliers – Fosses", "zdatype": "railStation"}}, {"type": "Feature", "geometry": {"type": "Point", "coordinates": [2.4493968213133064, 48.79661095553917]}, "properties": {"zdaname": "Créteil – L’Échat", "zdatype": "metroStation"}}, {"type": "Feature", "geometry": {"type": "Point", "coordinates": [2.365938825518962, 48.84645459335371]}, "properties": {"zdaname": "Quai de la Rapée", "zdatype": "metroStation"}}, {"type": "Feature", "geometry": {"type": "Point", "coordinates": [2.3153301349418234, 48.95322165781103]}, "properties": {"zdaname": "Rose Bertin", "zdatype": "onstreetTram"}}, {"type": "Feature", "geometry": {"type": "Point", "coordinates": [2.3289318718057563, 48.949917285788096]}, "properties": {"zdaname": "Les Mobiles", "zdatype": "onstreetTram"}}, {"type": "Feature", "geometry": {"type": "Point", "coordinates": [2.178923121806724, 48.78515619730935]}, "properties": {"zdaname": "Robert Wagner", "zdatype": "onstreetTram"}}, {"type": "Feature", "geometry": {"type": "Point", "coordinates": [2.2090740037401737, 48.7813841203026]}, "properties": {"zdaname": "Inovel Parc Nord", "zdatype": "onstreetTram"}}, {"type": "Feature", "geometry": {"type": "Point", "coordinates": [2.3721954000063254, 48.97749816932428]}, "properties": {"zdaname": "Les Cholettes", "zdatype": "onstreetTram"}}, {"type": "Feature", "geometry": {"type": "Point", "coordinates": [2.350887668056646, 48.82078680531588]}, "properties": {"zdaname": "Poterne des Peupliers", "zdatype": "onstreetTram"}}, {"type": "Feature", "geometry": {"type": "Point", "coordinates": [2.408869145219815, 48.83987527643243]}, "properties": {"zdaname": "Montempoivre", "zdatype": "onstreetTram"}}, {"type": "Feature", "geometry": {"type": "Point", "coordinates": [2.3810268156634886, 48.825524436522144]}, "properties": {"zdaname": "Avenue de France", "zdatype": "onstreetTram"}}, {"type": "Feature", "geometry": {"type": "Point", "coordinates": [2.2386139221125725, 48.8191802537508]}, "properties": {"zdaname": "Meudon-sur-Seine", "zdatype": "onstreetTram"}}, {"type": "Feature", "geometry": {"type": "Point", "coordinates": [2.225946993463603, 48.87610108049704]}, "properties": {"zdaname": "Belvédère", "zdatype": "onstreetTram"}}, {"type": "Feature", "geometry": {"type": "Point", "coordinates": [2.3677708509066395, 48.78754580444347]}, "properties": {"zdaname": "Villejuif – Louis Aragon", "zdatype": "metroStation"}}, {"type": "Feature", "geometry": {"type": "Point", "coordinates": [2.386519665168257, 48.84721842812635]}, "properties": {"zdaname": "Reuilly – Diderot", "zdatype": "metroStation"}}, {"type": "Feature", "geometry": {"type": "Point", "coordinates": [2.376033068376642, 48.851265254561774]}, "properties": {"zdaname": "Ledru-Rollin", "zdatype": "metroStation"}}, {"type": "Feature", "geometry": {"type": "Point", "coordinates": [2.3621983853051773, 48.810261929311366]}, "properties": {"zdaname": "Le Kremlin-Bicêtre", "zdatype": "metroStation"}}, {"type": "Feature", "geometry": {"type": "Point", "coordinates": [2.3255479767816434, 48.82339867212096]}, "properties": {"zdaname": "Porte d’Orléans", "zdatype": "metroStation"}}, {"type": "Feature", "geometry": {"type": "Point", "coordinates": [2.3579275940301128, 48.876216219810566]}, "properties": {"zdaname": "Gare de l’Est", "zdatype": "metroStation"}}, {"type": "Feature", "geometry": {"type": "Point", "coordinates": [2.3602983793225234, 48.878567179416386]}, "properties": {"zdaname": "Gare de l’Est", "zdatype": "railStation"}}, {"type": "Feature", "geometry": {"type": "Point", "coordinates": [2.3561729251015997, 48.929922750445755]}, "properties": {"zdaname": "Saint-Denis – Porte de Paris", "zdatype": "metroStation"}}, {"type": "Feature", "geometry": {"type": "Point", "coordinates": [2.4058041802943073, 48.83503951179316]}, "properties": {"zdaname": "Porte Dorée", "zdatype": "metroStation"}}, {"type": "Feature", "geometry": {"type": "Point", "coordinates": [2.2214306428513404, 48.86811252613484]}, "properties": {"zdaname": "Suresnes Longchamp", "zdatype": "onstreetTram"}}, {"type": "Feature", "geometry": {"type": "Point", "coordinates": [2.225354958826068, 48.828817500984854]}, "properties": {"zdaname": "Musée de Sèvres", "zdatype": "onstreetTram"}}, {"type": "Feature", "geometry": {"type": "Point", "coordinates": [2.364508491686045, 48.94586657033911]}, "properties": {"zdaname": "Saint-Denis – Université", "zdatype": "metroStation"}}, {"type": "Feature", "geometry": {"type": "Point", "coordinates": [2.398580770693528, 48.8801595806643]}, "properties": {"zdaname": "Pré-Saint-Gervais", "zdatype": "metroStation"}}, {"type": "Feature", "geometry": {"type": "Point", "coordinates": [2.309494660828499, 48.84561150636878]}, "properties": {"zdaname": "Sèvres-Lecourbe", "zdatype": "metroStation"}}, {"type": "Feature", "geometry": {"type": "Point", "coordinates": [2.3371139618212857, 48.832879807398044]}, "properties": {"zdaname": "Saint-Jacques", "zdatype": "metroStation"}}, {"type": "Feature", "geometry": {"type": "Point", "coordinates": [2.2950318686372633, 48.84699312132632]}, "properties": {"zdaname": "Avenue Émile Zola", "zdatype": "metroStation"}}, {"type": "Feature", "geometry": {"type": "Point", "coordinates": [2.392088512899463, 48.888490512657775]}, "properties": {"zdaname": "Porte de Pantin", "zdatype": "metroStation"}}, {"type": "Feature", "geometry": {"type": "Point", "coordinates": [2.4138460238665758, 48.82136382099295]}, "properties": {"zdaname": "Charenton – Écoles", "zdatype": "metroStation"}}, {"type": "Feature", "geometry": {"type": "Point", "coordinates": [2.3571685034992234, 48.82614504964258]}, "properties": {"zdaname": "Tolbiac", "zdatype": "metroStation"}}, {"type": "Feature", "geometry": {"type": "Point", "coordinates": [2.2735594210607184, 48.82425435678085]}, "properties": {"zdaname": "Mairie d’Issy", "zdatype": "metroStation"}}, {"type": "Feature", "geometry": {"type": "Point", "coordinates": [2.3444049565672587, 48.87599903205398]}, "properties": {"zdaname": "Cadet", "zdatype": "metroStation"}}, {"type": "Feature", "geometry": {"type": "Point", "coordinates": [2.3446793040449454, 48.89753942314597]}, "properties": {"zdaname": "Porte de Clignancourt", "zdatype": "metroStation"}}, {"type": "Feature", "geometry": {"type": "Point", "coordinates": [2.2680694371128984, 48.85244324526238]}, "properties": {"zdaname": "Jasmin", "zdatype": "metroStation"}}, {"type": "Feature", "geometry": {"type": "Point", "coordinates": [2.289336994534142, 48.853902505817636]}, "properties": {"zdaname": "Bir-Hakeim", "zdatype": "metroStation"}}, {"type": "Feature", "geometry": {"type": "Point", "coordinates": [2.3307759385082703, 48.851173570586155]}, "properties": {"zdaname": "Saint-Sulpice", "zdatype": "metroStation"}}, {"type": "Feature", "geometry": {"type": "Point", "coordinates": [2.4015516284958927, 48.8684381810926]}, "properties": {"zdaname": "Pelleport", "zdatype": "metroStation"}}, {"type": "Feature", "geometry": {"type": "Point", "coordinates": [2.327897122247714, 48.8482614978633]}, "properties": {"zdaname": "Rennes", "zdatype": "metroStation"}}, {"type": "Feature", "geometry": {"type": "Point", "coordinates": [2.27802386960161, 48.846127230945825]}, "properties": {"zdaname": "Javel – André Citroën", "zdatype": "metroStation"}}, {"type": "Feature", "geometry": {"type": "Point", "coordinates": [2.752898337073854, 48.430461048527036]}, "properties": {"zdaname": "Vulaines-sur-Seine – Samoreau", "zdatype": "railStation"}}, {"type": "Feature", "geometry": {"type": "Point", "coordinates": [2.4386843379137404, 48.744611075691886]}, "properties": {"zdaname": "Villeneuve Triage", "zdatype": "railStation"}}, {"type": "Feature", "geometry": {"type": "Point", "coordinates": [2.566390086776487, 48.944086979749436]}, "properties": {"zdaname": "Vert Galant", "zdatype": "railStation"}}, {"type": "Feature", "geometry": {"type": "Point", "coordinates": [1.9705395273077746, 49.09954780285818]}, "properties": {"zdaname": "Us", "zdatype": "railStation"}}, {"type": "Feature", "geometry": {"type": "Point", "coordinates": [2.005697508672029, 48.98141399529343]}, "properties": {"zdaname": "Triel-sur-Seine", "zdatype": "railStation"}}, {"type": "Feature", "geometry": {"type": "Point", "coordinates": [1.9191651096448794, 49.00667304663373]}, "properties": {"zdaname": "Thun le Paradis", "zdatype": "railStation"}}, {"type": "Feature", "geometry": {"type": "Point", "coordinates": [2.072705714296592, 48.798770055384985]}, "properties": {"zdaname": "Saint-Cyr", "zdatype": "railStation"}}, {"type": "Feature", "geometry": {"type": "Point", "coordinates": [2.287844152886833, 49.113669362227405]}, "properties": {"zdaname": "Presles – Courcelles", "zdatype": "railStation"}}, {"type": "Feature", "geometry": {"type": "Point", "coordinates": [2.1545237694991446, 49.019172791954404]}, "properties": {"zdaname": "Pierrelaye", "zdatype": "railStation"}}, {"type": "Feature", "geometry": {"type": "Point", "coordinates": [2.4319281617328907, 48.570543979536396]}, "properties": {"zdaname": "Mennecy", "zdatype": "railStation"}}, {"type": "Feature", "geometry": {"type": "Point", "coordinates": [1.8568961731457958, 48.90932803605893]}, "properties": {"zdaname": "Maule", "zdatype": "railStation"}}, {"type": "Feature", "geometry": {"type": "Point", "coordinates": [3.0754989980809686, 49.135381005893805]}, "properties": {"zdaname": "Mareuil-sur-Ourcq", "zdatype": "railStation"}}, {"type": "Feature", "geometry": {"type": "Point", "coordinates": [2.0768823257166424, 48.86818217536456]}, "properties": {"zdaname": "L’Étang-la-Ville", "zdatype": "railStation"}}, {"type": "Feature", "geometry": {"type": "Point", "coordinates": [2.216551458899091, 48.85624510144092]}, "properties": {"zdaname": "Le Val d’Or", "zdatype": "railStation"}}, {"type": "Feature", "geometry": {"type": "Point", "coordinates": [2.180341866372171, 48.97988373233733]}, "properties": {"zdaname": "La Frette – Montigny", "zdatype": "railStation"}}, {"type": "Feature", "geometry": {"type": "Point", "coordinates": [1.8449457407758805, 48.99224042170689]}, "properties": {"zdaname": "Juziers", "zdatype": "railStation"}}, {"type": "Feature", "geometry": {"type": "Point", "coordinates": [2.164441106778712, 48.76475552407521]}, "properties": {"zdaname": "Jouy-en-Josas", "zdatype": "railStation"}}, {"type": "Feature", "geometry": {"type": "Point", "coordinates": [2.3079823128421886, 48.93281967344668]}, "properties": {"zdaname": "Gennevilliers", "zdatype": "railStation"}}, {"type": "Feature", "geometry": {"type": "Point", "coordinates": [2.0905594933255953, 49.017895955276614]}, "properties": {"zdaname": "Éragny – Neuville", "zdatype": "railStation"}}, {"type": "Feature", "geometry": {"type": "Point", "coordinates": [2.3371185275240935, 49.03283685798492]}, "properties": {"zdaname": "Domont", "zdatype": "railStation"}}, {"type": "Feature", "geometry": {"type": "Point", "coordinates": [3.0812613115733436, 48.80805936234078]}, "properties": {"zdaname": "Coulommiers", "zdatype": "railStation"}}, {"type": "Feature", "geometry": {"type": "Point", "coordinates": [2.0987166915091806, 48.99691492850533]}, "properties": {"zdaname": "Conflans-Sainte-Honorine", "zdatype": "railStation"}}, {"type": "Feature", "geometry": {"type": "Point", "coordinates": [2.6649531324942384, 48.991325172484125]}, "properties": {"zdaname": "Compans", "zdatype": "railStation"}}, {"type": "Feature", "geometry": {"type": "Point", "coordinates": [2.274243920889909, 48.814221332313934]}, "properties": {"zdaname": "Clamart", "zdatype": "railStation"}}, {"type": "Feature", "geometry": {"type": "Point", "coordinates": [2.2383986870350916, 48.907576696892555]}, "properties": {"zdaname": "Charlebourg", "zdatype": "onstreetTram"}}, {"type": "Feature", "geometry": {"type": "Point", "coordinates": [2.2297648620082167, 48.91388867225801]}, "properties": {"zdaname": "Victor Basch", "zdatype": "onstreetTram"}}, {"type": "Feature", "geometry": {"type": "Point", "coordinates": [2.2252372040057837, 48.78357668521714]}, "properties": {"zdaname": "Meudon-la-Forêt", "zdatype": "onstreetTram"}}, {"type": "Feature", "geometry": {"type": "Point", "coordinates": [2.3848338112662755, 48.854971185018236]}, "properties": {"zdaname": "Charonne", "zdatype": "metroStation"}}, {"type": "Feature", "geometry": {"type": "Point", "coordinates": [2.383471833010673, 48.86641283715329]}, "properties": {"zdaname": "Ménilmontant", "zdatype": "metroStation"}}, {"type": "Feature", "geometry": {"type": "Point", "coordinates": [2.3680813919949126, 48.83495408901352]}, "properties": {"zdaname": "Chevaleret", "zdatype": "metroStation"}}, {"type": "Feature", "geometry": {"type": "Point", "coordinates": [2.3441548403302916, 48.882868568843925]}, "properties": {"zdaname": "Anvers", "zdatype": "metroStation"}}, {"type": "Feature", "geometry": {"type": "Point", "coordinates": [2.383498053635828, 48.811210093393306]}, "properties": {"zdaname": "Mairie d’Ivry", "zdatype": "metroStation"}}, {"type": "Feature", "geometry": {"type": "Point", "coordinates": [2.379272760660398, 48.840139066269245]}, "properties": {"zdaname": "Bercy", "zdatype": "metroStation"}}, {"type": "Feature", "geometry": {"type": "Point", "coordinates": [2.400867131995259, 48.84142733223358]}, "properties": {"zdaname": "Bel-Air", "zdatype": "metroStation"}}, {"type": "Feature", "geometry": {"type": "Point", "coordinates": [2.4348600891653973, 48.80894565167572]}, "properties": {"zdaname": "Maisons-Alfort – Stade", "zdatype": "metroStation"}}, {"type": "Feature", "geometry": {"type": "Point", "coordinates": [2.3681536881286545, 48.857087677269355]}, "properties": {"zdaname": "Chemin Vert", "zdatype": "metroStation"}}, {"type": "Feature", "geometry": {"type": "Point", "coordinates": [2.38889394915601, 48.87948099577309]}, "properties": {"zdaname": "Botzaris", "zdatype": "metroStation"}}, {"type": "Feature", "geometry": {"type": "Point", "coordinates": [2.3318039820242955, 48.870902050787265]}, "properties": {"zdaname": "Opéra", "zdatype": "metroStation"}}, {"type": "Feature", "geometry": {"type": "Point", "coordinates": [2.249917579735347, 48.88834081597984]}, "properties": {"zdaname": "Esplanade de la Défense", "zdatype": "metroStation"}}, {"type": "Feature", "geometry": {"type": "Point", "coordinates": [2.350118109058783, 48.88362055043074]}, "properties": {"zdaname": "Barbès – Rochechouart", "zdatype": "metroStation"}}, {"type": "Feature", "geometry": {"type": "Point", "coordinates": [2.3378872526824943, 48.876035106688654]}, "properties": {"zdaname": "Notre-Dame-de-Lorette", "zdatype": "metroStation"}}, {"type": "Feature", "geometry": {"type": "Point", "coordinates": [2.366978696331922, 48.82703379825273]}, "properties": {"zdaname": "Olympiades", "zdatype": "metroStation"}}, {"type": "Feature", "geometry": {"type": "Point", "coordinates": [2.393228471227492, 48.88194921492064]}, "properties": {"zdaname": "Danube", "zdatype": "metroStation"}}, {"type": "Feature", "geometry": {"type": "Point", "coordinates": [2.426281302729114, 48.89561093631083]}, "properties": {"zdaname": "Bobigny-Pantin – Raymond Queneau", "zdatype": "metroStation"}}, {"type": "Feature", "geometry": {"type": "Point", "coordinates": [2.333960863627033, 48.85361960424617]}, "properties": {"zdaname": "Saint-Germain-des-Prés", "zdatype": "metroStation"}}, {"type": "Feature", "geometry": {"type": "Point", "coordinates": [2.320040002245321, 48.89063914901308]}, "properties": {"zdaname": "Brochant", "zdatype": "metroStation"}}, {"type": "Feature", "geometry": {"type": "Point", "coordinates": [2.329034701677274, 48.89749776091426]}, "properties": {"zdaname": "Porte de Saint-Ouen", "zdatype": "metroStation"}}, {"type": "Feature", "geometry": {"type": "Point", "coordinates": [2.4831802104611005, 48.70645069789057]}, "properties": {"zdaname": "Yerres", "zdatype": "railStation"}}, {"type": "Feature", "geometry": {"type": "Point", "coordinates": [2.4264168460553406, 48.73968682540993]}, "properties": {"zdaname": "Villeneuve-le-Roi", "zdatype": "railStation"}}, {"type": "Feature", "geometry": {"type": "Point", "coordinates": [2.200722651539586, 48.82725236463642]}, "properties": {"zdaname": "Sèvres – Ville-d’Avray", "zdatype": "railStation"}}, {"type": "Feature", "geometry": {"type": "Point", "coordinates": [1.9494070742480076, 49.1233372934575]}, "properties": {"zdaname": "Santeuil – Le Perchay", "zdatype": "railStation"}}, {"type": "Feature", "geometry": {"type": "Point", "coordinates": [2.481173334974704, 48.88257846329409]}, "properties": {"zdaname": "Rosny Bois Perrier", "zdatype": "railStation"}}, {"type": "Feature", "geometry": {"type": "Point", "coordinates": [2.3737183269541147, 48.89645374546333]}, "properties": {"zdaname": "Rosa Parks", "zdatype": "railStation"}}, {"type": "Feature", "geometry": {"type": "Point", "coordinates": [2.3159282522466507, 48.894257997993165]}, "properties": {"zdaname": "Porte de Clichy", "zdatype": "railStation"}}, {"type": "Feature", "geometry": {"type": "Point", "coordinates": [2.3732099087749376, 48.74834176178746]}, "properties": {"zdaname": "Pont de Rungis Aéroport d’Orly", "zdatype": "railStation"}}, {"type": "Feature", "geometry": {"type": "Point", "coordinates": [2.1468519735691025, 48.77123310093248]}, "properties": {"zdaname": "Petit Jouy Les Loges", "zdatype": "railStation"}}, {"type": "Feature", "geometry": {"type": "Point", "coordinates": [2.0581485796099086, 49.06281443608871]}, "properties": {"zdaname": "Osny", "zdatype": "railStation"}}, {"type": "Feature", "geometry": {"type": "Point", "coordinates": [2.65469836071817, 48.527491277248295]}, "properties": {"zdaname": "Melun", "zdatype": "railStation"}}, {"type": "Feature", "geometry": {"type": "Point", "coordinates": [2.8688017694030563, 48.734813633201185]}, "properties": {"zdaname": "Marles-en-Brie", "zdatype": "railStation"}}, {"type": "Feature", "geometry": {"type": "Point", "coordinates": [2.678938090279448, 48.510287169594484]}, "properties": {"zdaname": "Livry-sur-Seine", "zdatype": "railStation"}}, {"type": "Feature", "geometry": {"type": "Point", "coordinates": [1.9134589075632746, 48.99258364891608]}, "properties": {"zdaname": "Les Mureaux", "zdatype": "railStation"}}, {"type": "Feature", "geometry": {"type": "Point", "coordinates": [2.266215906699314, 48.59111916474817]}, "properties": {"zdaname": "La Norville – Saint-Germain-lès-Arpajon", "zdatype": "railStation"}}, {"type": "Feature", "geometry": {"type": "Point", "coordinates": [3.1246977688996704, 48.95077734231208]}, "properties": {"zdaname": "La Ferté-sous-Jouarre", "zdatype": "railStation"}}, {"type": "Feature", "geometry": {"type": "Point", "coordinates": [2.230807709456828, 48.74084436425854]}, "properties": {"zdaname": "Igny", "zdatype": "railStation"}}, {"type": "Feature", "geometry": {"type": "Point", "coordinates": [2.185168881790716, 48.92034753271259]}, "properties": {"zdaname": "Houilles – Carrières-sur-Seine", "zdatype": "railStation"}}, {"type": "Feature", "geometry": {"type": "Point", "coordinates": [2.1970921514919, 49.04527266532599]}, "properties": {"zdaname": "Frépillon", "zdatype": "railStation"}}, {"type": "Feature", "geometry": {"type": "Point", "coordinates": [2.454876356509294, 48.93273252291907]}, "properties": {"zdaname": "Drancy", "zdatype": "railStation"}}, {"type": "Feature", "geometry": {"type": "Point", "coordinates": [2.0746430929689184, 48.99115623457096]}, "properties": {"zdaname": "Conflans Fin d’Oise", "zdatype": "railStation"}}, {"type": "Feature", "geometry": {"type": "Point", "coordinates": [2.2974715817070854, 48.897496630852295]}, "properties": {"zdaname": "Clichy – Levallois", "zdatype": "railStation"}}, {"type": "Feature", "geometry": {"type": "Point", "coordinates": [2.1834188647329227, 48.799676667875644]}, "properties": {"zdaname": "Chaville – Vélizy", "zdatype": "railStation"}}, {"type": "Feature", "geometry": {"type": "Point", "coordinates": [2.6952659022131686, 48.487012546621564]}, "properties": {"zdaname": "Chartrettes", "zdatype": "railStation"}}, {"type": "Feature", "geometry": {"type": "Point", "coordinates": [2.2748068278182147, 48.85698107128233]}, "properties": {"zdaname": "Boulainvilliers", "zdatype": "railStation"}}, {"type": "Feature", "geometry": {"type": "Point", "coordinates": [2.57179291425262, 48.52985734002498]}, "properties": {"zdaname": "Boissise-le-Roi", "zdatype": "railStation"}}, {"type": "Feature", "geometry": {"type": "Point", "coordinates": [2.23709971084137, 48.78490320945079]}, "properties": {"zdaname": "Georges Pompidou", "zdatype": "onstreetTram"}}, {"type": "Feature", "geometry": {"type": "Point", "coordinates": [2.4096779729962416, 48.858684719923495]}, "properties": {"zdaname": "Marie De Miribel", "zdatype": "onstreetTram"}}, {"type": "Feature", "geometry": {"type": "Point", "coordinates": [1.5900666154185896, 48.54255540879361]}, "properties": {"zdaname": "Saint-Piat", "zdatype": "railStation"}}, {"type": "Feature", "geometry": {"type": "Point", "coordinates": [3.302755717494535, 48.02661954083228]}, "properties": {"zdaname": "Saint-Julien du Sault", "zdatype": "railStation"}}, {"type": "Feature", "geometry": {"type": "Point", "coordinates": [3.267373811999267, 48.198225613931584]}, "properties": {"zdaname": "Sens", "zdatype": "railStation"}}, {"type": "Feature", "geometry": {"type": "Point", "coordinates": [3.297573583862884, 48.78270496537101]}, "properties": {"zdaname": "La Ferté-Gaucher", "zdatype": "railStation"}}, {"type": "Feature", "geometry": {"type": "Point", "coordinates": [2.362237794019318, 49.16664871633883]}, "properties": {"zdaname": "Boran-sur-Oise", "zdatype": "railStation"}}, {"type": "Feature", "geometry": {"type": "Point", "coordinates": [1.7796320690119156, 48.44534289532685]}, "properties": {"zdaname": "Auneau", "zdatype": "railStation"}}, {"type": "Feature", "geometry": {"type": "Point", "coordinates": [2.45466895335022, 48.87829680770251]}, "properties": {"zdaname": "Montreuil – Hôpital", "zdatype": "metroStation"}}, {"type": "Feature", "geometry": {"type": "Point", "coordinates": [2.349973989837536, 48.80995325224155]}, "properties": {"zdaname": "Hôpital Bicêtre", "zdatype": "metroStation"}}, {"type": "Feature", "geometry": {"type": "Point", "coordinates": [2.3517390174961235, 48.857476534284594]}, "properties": {"zdaname": "Hôtel de Ville", "zdatype": "metroStation"}}, {"type": "Feature", "geometry": {"type": "Point", "coordinates": [2.362459916604931, 48.918076675621]}, "properties": {"zdaname": "La Plaine Stade de France", "zdatype": "railStation"}}, {"type": "Feature", "geometry": {"type": "Point", "coordinates": [2.3861022054049448, 48.92429737042087]}, "properties": {"zdaname": "La Courneuve – Aubervilliers", "zdatype": "railStation"}}, {"type": "Feature", "geometry": {"type": "Point", "coordinates": [2.4635325953930267, 48.843784288604645]}, "properties": {"zdaname": "Fontenay-sous-Bois", "zdatype": "railStation"}}, {"type": "Feature", "geometry": {"type": "Point", "coordinates": [2.34696975192976, 48.8617404982966]}, "properties": {"zdaname": "Châtelet les Halles", "zdatype": "railStation"}}, {"type": "Feature", "geometry": {"type": "Point", "coordinates": [2.4716815387700932, 48.8343053755762]}, "properties": {"zdaname": "Nogent-sur-Marne", "zdatype": "railStation"}}, {"type": "Feature", "geometry": {"type": "Point", "coordinates": [2.212716924167388, 48.70590791056931]}, "properties": {"zdaname": "Lozère", "zdatype": "railStation"}}, {"type": "Feature", "geometry": {"type": "Point", "coordinates": [2.2135296738459163, 48.901129701255584]}, "properties": {"zdaname": "Nanterre Université", "zdatype": "railStation"}}, {"type": "Feature", "geometry": {"type": "Point", "coordinates": [2.3220026072704925, 48.79332991028714]}, "properties": {"zdaname": "Bagneux", "zdatype": "railStation"}}, {"type": "Feature", "geometry": {"type": "Point", "coordinates": [2.5132288098775164, 48.795323040157534]}, "properties": {"zdaname": "La Varenne – Chennevières", "zdatype": "railStation"}}, {"type": "Feature", "geometry": {"type": "Point", "coordinates": [2.463873985590733, 48.82119386892411]}, "properties": {"zdaname": "Joinville-le-Pont", "zdatype": "railStation"}}, {"type": "Feature", "geometry": {"type": "Point", "coordinates": [2.5256674929575196, 48.84513499388826]}, "properties": {"zdaname": "Bry-sur-Marne", "zdatype": "railStation"}}, {"type": "Feature", "geometry": {"type": "Point", "coordinates": [2.5044898247599905, 48.75225960739537]}, "properties": {"zdaname": "Boissy-Saint-Léger", "zdatype": "railStation"}}, {"type": "Feature", "geometry": {"type": "Point", "coordinates": [2.772419131298232, 48.85484314704975]}, "properties": {"zdaname": "Val d’Europe", "zdatype": "railStation"}}, {"type": "Feature", "geometry": {"type": "Point", "coordinates": [2.486611271024642, 48.80540169915318]}, "properties": {"zdaname": "Le Parc de Saint-Maur", "zdatype": "railStation"}}, {"type": "Feature", "geometry": {"type": "Point", "coordinates": [2.472905773786876, 48.806196464982186]}, "properties": {"zdaname": "Saint-Maur – Créteil", "zdatype": "railStation"}}, {"type": "Feature", "geometry": {"type": "Point", "coordinates": [2.3343346676393026, 48.808356216866294]}, "properties": {"zdaname": "Laplace", "zdatype": "railStation"}}, {"type": "Feature", "geometry": {"type": "Point", "coordinates": [2.395937704437568, 48.84822865982205]}, "properties": {"zdaname": "Nation", "zdatype": "railStation"}}, {"type": "Feature", "geometry": {"type": "Point", "coordinates": [2.3659923652998383, 48.97085603654364]}, "properties": {"zdaname": "Jacques Prévert", "zdatype": "onstreetTram"}}, {"type": "Feature", "geometry": {"type": "Point", "coordinates": [2.072959968275366, 48.903199886826066]}, "properties": {"zdaname": "Lisière Pereire", "zdatype": "onstreetTram"}}, {"type": "Feature", "geometry": {"type": "Point", "coordinates": [2.0688881679380025, 48.872293339078894]}, "properties": {"zdaname": "L’Etang – Les Sablons", "zdatype": "onstreetTram"}}, {"type": "Feature", "geometry": {"type": "Point", "coordinates": [2.395613319176849, 48.63413372595742]}, "properties": {"zdaname": "Bois de Saint-Eutrope", "zdatype": "onstreetTram"}}, {"type": "Feature", "geometry": {"type": "Point", "coordinates": [2.3850339201325497, 48.87381342542994]}, "properties": {"zdaname": "Pyrénées", "zdatype": "metroStation"}}, {"type": "Feature", "geometry": {"type": "Point", "coordinates": [2.253811638771925, 48.78695148320931]}, "properties": {"zdaname": "Hôpital Béclère", "zdatype": "onstreetTram"}}, {"type": "Feature", "geometry": {"type": "Point", "coordinates": [2.36157530643897, 48.866720730814095]}, "properties": {"zdaname": "Temple", "zdatype": "metroStation"}}, {"type": "Feature", "geometry": {"type": "Point", "coordinates": [2.405784307867741, 48.76387950834447]}, "properties": {"zdaname": "Rouget de Lisle", "zdatype": "onstreetTram"}}, {"type": "Feature", "geometry": {"type": "Point", "coordinates": [2.4169217671724916, 48.752151945504636]}, "properties": {"zdaname": "Christophe Colomb", "zdatype": "onstreetTram"}}, {"type": "Feature", "geometry": {"type": "Point", "coordinates": [2.234183951840191, 48.99374635691404]}, "properties": {"zdaname": "Franconville – Le Plessis-Bouchard", "zdatype": "railStation"}}, {"type": "Feature", "geometry": {"type": "Point", "coordinates": [2.370091771468408, 48.53101080740617]}, "properties": {"zdaname": "Ballancourt", "zdatype": "railStation"}}, {"type": "Feature", "geometry": {"type": "Point", "coordinates": [2.249984364121161, 48.77671009686588]}, "properties": {"zdaname": "Noveos", "zdatype": "onstreetTram"}}, {"type": "Feature", "geometry": {"type": "Point", "coordinates": [2.4353090371415598, 48.77125404013842]}, "properties": {"zdaname": "Créteil Pompadour", "zdatype": "railStation"}}, {"type": "Feature", "geometry": {"type": "Point", "coordinates": [2.259737167027824, 48.765519074068266]}, "properties": {"zdaname": "Cité-Jardin", "zdatype": "onstreetTram"}}, {"type": "Feature", "geometry": {"type": "Point", "coordinates": [2.4198671978308437, 48.725776766798226]}, "properties": {"zdaname": "Ablon", "zdatype": "railStation"}}, {"type": "Feature", "geometry": {"type": "Point", "coordinates": [2.293769591845626, 48.844611351503715]}, "properties": {"zdaname": "Commerce", "zdatype": "metroStation"}}, {"type": "Feature", "geometry": {"type": "Point", "coordinates": [2.317523160991534, 48.844380478885164]}, "properties": {"zdaname": "Falguière", "zdatype": "metroStation"}}, {"type": "Feature", "geometry": {"type": "Point", "coordinates": [2.3667045167379723, 48.8630606742116]}, "properties": {"zdaname": "Filles du Calvaire", "zdatype": "metroStation"}}, {"type": "Feature", "geometry": {"type": "Point", "coordinates": [2.3559698349307956, 48.87245547031581]}, "properties": {"zdaname": "Château d’Eau", "zdatype": "metroStation"}}, {"type": "Feature", "geometry": {"type": "Point", "coordinates": [2.3649942226203313, 48.84233950886421]}, "properties": {"zdaname": "Gare d’Austerlitz", "zdatype": "metroStation"}}, {"type": "Feature", "geometry": {"type": "Point", "coordinates": [2.0512997090431226, 48.86709174459043]}, "properties": {"zdaname": "Saint-Nom-la-Bretèche Forêt de Marly", "zdatype": "railStation"}}, {"type": "Feature", "geometry": {"type": "Point", "coordinates": [2.2730641263728333, 48.84707750734599]}, "properties": {"zdaname": "Mirabeau", "zdatype": "metroStation"}}, {"type": "Feature", "geometry": {"type": "Point", "coordinates": [2.299221924483929, 48.88602247159188]}, "properties": {"zdaname": "Péreire Levallois", "zdatype": "railStation"}}, {"type": "Feature", "geometry": {"type": "Point", "coordinates": [2.4162467958973055, 48.99377204005172]}, "properties": {"zdaname": "Villiers-le-Bel – Gonesse – Arnouville", "zdatype": "railStation"}}, {"type": "Feature", "geometry": {"type": "Point", "coordinates": [2.240935174908905, 48.80754781837646]}, "properties": {"zdaname": "Meudon Val Fleury", "zdatype": "railStation"}}, {"type": "Feature", "geometry": {"type": "Point", "coordinates": [2.336764419610442, 48.86249378865904]}, "properties": {"zdaname": "Palais Royal – Musée du Louvre", "zdatype": "metroStation"}}, {"type": "Feature", "geometry": {"type": "Point", "coordinates": [2.2326885117218462, 48.950652882428024]}, "properties": {"zdaname": "Val d’Argenteuil", "zdatype": "railStation"}}, {"type": "Feature", "geometry": {"type": "Point", "coordinates": [2.3174583756914613, 48.809790021098756]}, "properties": {"zdaname": "Barbara", "zdatype": "metroStation"}}, {"type": "Feature", "geometry": {"type": "Point", "coordinates": [2.477713962139221, 49.03307204384692]}, "properties": {"zdaname": "Les Noues", "zdatype": "railStation"}}, {"type": "Feature", "geometry": {"type": "Point", "coordinates": [2.5069840186796566, 49.12619491684608]}, "properties": {"zdaname": "La Borne Blanche", "zdatype": "railStation"}}, {"type": "Feature", "geometry": {"type": "Point", "coordinates": [2.331935270853714, 48.906372239760294]}, "properties": {"zdaname": "Garibaldi", "zdatype": "metroStation"}}, {"type": "Feature", "geometry": {"type": "Point", "coordinates": [2.339130882512148, 48.94779769214343]}, "properties": {"zdaname": "Blumenthal", "zdatype": "onstreetTram"}}, {"type": "Feature", "geometry": {"type": "Point", "coordinates": [2.2941807574789617, 48.80720849991657]}, "properties": {"zdaname": "Vauban", "zdatype": "onstreetTram"}}, {"type": "Feature", "geometry": {"type": "Point", "coordinates": [2.2632787267455416, 48.79029308874297]}, "properties": {"zdaname": "Soleil Levant", "zdatype": "onstreetTram"}}, {"type": "Feature", "geometry": {"type": "Point", "coordinates": [2.272667182139307, 48.79447889308721]}, "properties": {"zdaname": "Division Leclerc", "zdatype": "onstreetTram"}}, {"type": "Feature", "geometry": {"type": "Point", "coordinates": [2.3569988058192597, 48.94481933373001]}, "properties": {"zdaname": "Roger Semât", "zdatype": "onstreetTram"}}, {"type": "Feature", "geometry": {"type": "Point", "coordinates": [2.4089375316101878, 48.8674856118394]}, "properties": {"zdaname": "Séverine", "zdatype": "onstreetTram"}}, {"type": "Feature", "geometry": {"type": "Point", "coordinates": [2.3517076788839204, 48.89833310238019]}, "properties": {"zdaname": "Diane Arbus – Porte des Poissonniers", "zdatype": "onstreetTram"}}, {"type": "Feature", "geometry": {"type": "Point", "coordinates": [2.3804567724079853, 48.89871010338691]}, "properties": {"zdaname": "Canal Saint-Denis", "zdatype": "onstreetTram"}}, {"type": "Feature", "geometry": {"type": "Point", "coordinates": [2.4065749483533665, 48.83554698185417]}, "properties": {"zdaname": "Porte Dorée", "zdatype": "onstreetTram"}}, {"type": "Feature", "geometry": {"type": "Point", "coordinates": [2.2876291788589818, 48.83228052741376]}, "properties": {"zdaname": "Porte de Versailles – Parc des Expositions", "zdatype": "onstreetTram"}}, {"type": "Feature", "geometry": {"type": "Point", "coordinates": [2.3983464020099086, 48.8319893559141]}, "properties": {"zdaname": "Porte de Charenton", "zdatype": "onstreetTram"}}, {"type": "Feature", "geometry": {"type": "Point", "coordinates": [2.318856716095747, 48.824709816478325]}, "properties": {"zdaname": "Jean Moulin", "zdatype": "onstreetTram"}}, {"type": "Feature", "geometry": {"type": "Point", "coordinates": [2.393447270324095, 48.830381723305685]}, "properties": {"zdaname": "Baron Le Roy", "zdatype": "onstreetTram"}}, {"type": "Feature", "geometry": {"type": "Point", "coordinates": [2.371881885293421, 48.85986830267412]}, "properties": {"zdaname": "Richard-Lenoir", "zdatype": "metroStation"}}, {"type": "Feature", "geometry": {"type": "Point", "coordinates": [2.3482461474042595, 48.850145814796655]}, "properties": {"zdaname": "Maubert – Mutualité", "zdatype": "metroStation"}}, {"type": "Feature", "geometry": {"type": "Point", "coordinates": [2.3497754317800084, 48.89140685494191]}, "properties": {"zdaname": "Marcadet – Poissonniers", "zdatype": "metroStation"}}, {"type": "Feature", "geometry": {"type": "Point", "coordinates": [2.2970400663278756, 48.81530189685699]}, "properties": {"zdaname": "Malakoff – Rue Etienne Dolet", "zdatype": "metroStation"}}, {"type": "Feature", "geometry": {"type": "Point", "coordinates": [2.313429616415002, 48.8944595365128]}, "properties": {"zdaname": "Porte de Clichy", "zdatype": "metroStation"}}, {"type": "Feature", "geometry": {"type": "Point", "coordinates": [2.36463871580617, 48.82008719553984]}, "properties": {"zdaname": "Porte de Choisy", "zdatype": "metroStation"}}, {"type": "Feature", "geometry": {"type": "Point", "coordinates": [2.3143392687878515, 48.851278366135]}, "properties": {"zdaname": "Saint-François-Xavier", "zdatype": "metroStation"}}, {"type": "Feature", "geometry": {"type": "Point", "coordinates": [2.3986617233670704, 48.87551045266743]}, "properties": {"zdaname": "Télégraphe", "zdatype": "metroStation"}}, {"type": "Feature", "geometry": {"type": "Point", "coordinates": [2.291971482074161, 48.88569202941774]}, "properties": {"zdaname": "Porte de Champerret", "zdatype": "metroStation"}}, {"type": "Feature", "geometry": {"type": "Point", "coordinates": [2.3434570805630828, 48.8311340385114]}, "properties": {"zdaname": "Glacière", "zdatype": "metroStation"}}, {"type": "Feature", "geometry": {"type": "Point", "coordinates": [2.4292045801119455, 48.845442120650894]}, "properties": {"zdaname": "Bérault", "zdatype": "metroStation"}}, {"type": "Feature", "geometry": {"type": "Point", "coordinates": [2.338381113826743, 48.88438364997455]}, "properties": {"zdaname": "Abbesses", "zdatype": "metroStation"}}, {"type": "Feature", "geometry": {"type": "Point", "coordinates": [2.3892673894033054, 48.85228685193148]}, "properties": {"zdaname": "Rue des Boulets", "zdatype": "metroStation"}}, {"type": "Feature", "geometry": {"type": "Point", "coordinates": [2.321013128882672, 48.87458258385723]}, "properties": {"zdaname": "Saint-Augustin", "zdatype": "metroStation"}}, {"type": "Feature", "geometry": {"type": "Point", "coordinates": [2.382291557164633, 48.89467266005628]}, "properties": {"zdaname": "Corentin Cariou", "zdatype": "metroStation"}}, {"type": "Feature", "geometry": {"type": "Point", "coordinates": [2.351558228273389, 48.84024386534578]}, "properties": {"zdaname": "Censier – Daubenton", "zdatype": "metroStation"}}, {"type": "Feature", "geometry": {"type": "Point", "coordinates": [2.3345137557185764, 48.86581787079567]}, "properties": {"zdaname": "Pyramides", "zdatype": "metroStation"}}, {"type": "Feature", "geometry": {"type": "Point", "coordinates": [2.349473887846036, 48.88716040411004]}, "properties": {"zdaname": "Château Rouge", "zdatype": "metroStation"}}, {"type": "Feature", "geometry": {"type": "Point", "coordinates": [2.2283125898228056, 48.84067248206251]}, "properties": {"zdaname": "Boulogne Pont de Saint-Cloud", "zdatype": "metroStation"}}, {"type": "Feature", "geometry": {"type": "Point", "coordinates": [2.2305050843451077, 48.82967818374508]}, "properties": {"zdaname": "Pont de Sèvres", "zdatype": "metroStation"}}, {"type": "Feature", "geometry": {"type": "Point", "coordinates": [2.4064371589868894, 48.82611193740463]}, "properties": {"zdaname": "Liberté", "zdatype": "metroStation"}}, {"type": "Feature", "geometry": {"type": "Point", "coordinates": [2.3639998214475897, 48.804353542497964]}, "properties": {"zdaname": "Villejuif Léo Lagrange", "zdatype": "metroStation"}}, {"type": "Feature", "geometry": {"type": "Point", "coordinates": [2.350611225926166, 48.82986001331236]}, "properties": {"zdaname": "Corvisart", "zdatype": "metroStation"}}, {"type": "Feature", "geometry": {"type": "Point", "coordinates": [2.404429815249665, 48.87186101875512]}, "properties": {"zdaname": "Saint-Fargeau", "zdatype": "metroStation"}}, {"type": "Feature", "geometry": {"type": "Point", "coordinates": [2.3222267049344345, 48.8787623883211]}, "properties": {"zdaname": "Europe", "zdatype": "metroStation"}}, {"type": "Feature", "geometry": {"type": "Point", "coordinates": [2.313846985873111, 48.8317412918501]}, "properties": {"zdaname": "Plaisance", "zdatype": "metroStation"}}, {"type": "Feature", "geometry": {"type": "Point", "coordinates": [2.3255295988300655, 48.870093425450044]}, "properties": {"zdaname": "Madeleine", "zdatype": "metroStation"}}, {"type": "Feature", "geometry": {"type": "Point", "coordinates": [2.4229590598724213, 48.85570971473621]}, "properties": {"zdaname": "Robespierre", "zdatype": "metroStation"}}, {"type": "Feature", "geometry": {"type": "Point", "coordinates": [2.3673740815592526, 48.884252569344504]}, "properties": {"zdaname": "Stalingrad", "zdatype": "metroStation"}}, {"type": "Feature", "geometry": {"type": "Point", "coordinates": [2.5994003947460653, 48.515074400661256]}, "properties": {"zdaname": "Vosves", "zdatype": "railStation"}}, {"type": "Feature", "geometry": {"type": "Point", "coordinates": [1.992796424977386, 48.8236671955545]}, "properties": {"zdaname": "Villepreux – Les Clayes", "zdatype": "railStation"}}, {"type": "Feature", "geometry": {"type": "Point", "coordinates": [2.1301403873982663, 48.79991240057736]}, "properties": {"zdaname": "Versailles Château Rive Gauche", "zdatype": "railStation"}}, {"type": "Feature", "geometry": {"type": "Point", "coordinates": [2.15267474477223, 48.8366799938234]}, "properties": {"zdaname": "Vaucresson", "zdatype": "railStation"}}, {"type": "Feature", "geometry": {"type": "Point", "coordinates": [2.1925445909066235, 48.758967521340345]}, "properties": {"zdaname": "Vauboyen", "zdatype": "railStation"}}, {"type": "Feature", "geometry": {"type": "Point", "coordinates": [2.2919742985457, 48.818284959021085]}, "properties": {"zdaname": "Vanves – Malakoff", "zdatype": "railStation"}}, {"type": "Feature", "geometry": {"type": "Point", "coordinates": [2.583935997336682, 48.595487311391004]}, "properties": {"zdaname": "Savigny-le-Temple – Nandy", "zdatype": "railStation"}}, {"type": "Feature", "geometry": {"type": "Point", "coordinates": [2.0446075725627884, 48.7874766754562]}, "properties": {"zdaname": "Saint-Quentin en Yvelines – Montigny-le-Bretonneux", "zdatype": "railStation"}}, {"type": "Feature", "geometry": {"type": "Point", "coordinates": [2.1312394696734764, 49.06087433009002]}, "properties": {"zdaname": "Pont Petit", "zdatype": "railStation"}}, {"type": "Feature", "geometry": {"type": "Point", "coordinates": [1.8158254562929201, 48.80266227462239]}, "properties": {"zdaname": "Montfort-l’Amaury – Méré", "zdatype": "railStation"}}, {"type": "Feature", "geometry": {"type": "Point", "coordinates": [2.2428787878648233, 48.81435959975815]}, "properties": {"zdaname": "Meudon", "zdatype": "railStation"}}, {"type": "Feature", "geometry": {"type": "Point", "coordinates": [1.747400177113137, 48.98420199876826]}, "properties": {"zdaname": "Limay", "zdatype": "railStation"}}, {"type": "Feature", "geometry": {"type": "Point", "coordinates": [2.260948512567054, 48.93172049557505]}, "properties": {"zdaname": "Le Stade", "zdatype": "railStation"}}, {"type": "Feature", "geometry": {"type": "Point", "coordinates": [2.391677280020743, 48.8139591342409]}, "properties": {"zdaname": "Ivry-sur-Seine", "zdatype": "railStation"}}, {"type": "Feature", "geometry": {"type": "Point", "coordinates": [2.1622248272196067, 48.99013609272887]}, "properties": {"zdaname": "Herblay", "zdatype": "railStation"}}, {"type": "Feature", "geometry": {"type": "Point", "coordinates": [2.7271677390682614, 48.746455260394875]}, "properties": {"zdaname": "Gretz-Armainvilliers", "zdatype": "railStation"}}, {"type": "Feature", "geometry": {"type": "Point", "coordinates": [1.7731940021017505, 48.62603010015844]}, "properties": {"zdaname": "Gazeran", "zdatype": "railStation"}}, {"type": "Feature", "geometry": {"type": "Point", "coordinates": [1.7645793224017485, 48.810463686279576]}, "properties": {"zdaname": "Garancières – La Queue", "zdatype": "railStation"}}, {"type": "Feature", "geometry": {"type": "Point", "coordinates": [2.3678120457343126, 48.84031288133051]}, "properties": {"zdaname": "Gare d’Austerlitz", "zdatype": "railStation"}}, {"type": "Feature", "geometry": {"type": "Point", "coordinates": [2.750465255828441, 48.48734824062989]}, "properties": {"zdaname": "Fontaine-le-Port", "zdatype": "railStation"}}, {"type": "Feature", "geometry": {"type": "Point", "coordinates": [2.1947692381982216, 48.49387742150091]}, "properties": {"zdaname": "Étréchy", "zdatype": "railStation"}}, {"type": "Feature", "geometry": {"type": "Point", "coordinates": [2.809640024146965, 48.902895082157066]}, "properties": {"zdaname": "Esbly", "zdatype": "railStation"}}, {"type": "Feature", "geometry": {"type": "Point", "coordinates": [2.263200314131186, 48.990528881518074]}, "properties": {"zdaname": "Ermont Halte", "zdatype": "railStation"}}, {"type": "Feature", "geometry": {"type": "Point", "coordinates": [2.0087552616437985, 48.53375600022184]}, "properties": {"zdaname": "Dourdan", "zdatype": "railStation"}}, {"type": "Feature", "geometry": {"type": "Point", "coordinates": [2.9054376282552163, 48.85955477757579]}, "properties": {"zdaname": "Crécy-la-Chapelle", "zdatype": "railStation"}}, {"type": "Feature", "geometry": {"type": "Point", "coordinates": [2.24918299846974, 48.898615571020414]}, "properties": {"zdaname": "Courbevoie", "zdatype": "railStation"}}, {"type": "Feature", "geometry": {"type": "Point", "coordinates": [2.034515089041474, 49.0496421118596]}, "properties": {"zdaname": "Cergy Saint-Christophe", "zdatype": "railStation"}}, {"type": "Feature", "geometry": {"type": "Point", "coordinates": [1.5418160520990924, 48.94344832670416]}, "properties": {"zdaname": "Bréval", "zdatype": "railStation"}}, {"type": "Feature", "geometry": {"type": "Point", "coordinates": [1.582047851317821, 49.03882186493521]}, "properties": {"zdaname": "Bonnières", "zdatype": "railStation"}}, {"type": "Feature", "geometry": {"type": "Point", "coordinates": [2.025379291893017, 49.07571755164643]}, "properties": {"zdaname": "Boissy-l’Aillerie", "zdatype": "railStation"}}, {"type": "Feature", "geometry": {"type": "Point", "coordinates": [2.216160407184289, 48.7508679408046]}, "properties": {"zdaname": "Bièvres", "zdatype": "railStation"}}, {"type": "Feature", "geometry": {"type": "Point", "coordinates": [2.003750616855877, 48.31160112213947]}, "properties": {"zdaname": "Angerville", "zdatype": "railStation"}}, {"type": "Feature", "geometry": {"type": "Point", "coordinates": [2.0936460925941676, 48.955410877819524]}, "properties": {"zdaname": "Achères Grand Cormier", "zdatype": "railStation"}}, {"type": "Feature", "geometry": {"type": "Point", "coordinates": [2.3473232733725378, 48.94558538777881]}, "properties": {"zdaname": "Delaunay – Belleville", "zdatype": "onstreetTram"}}, {"type": "Feature", "geometry": {"type": "Point", "coordinates": [2.3574486014226785, 48.94819403322176]}, "properties": {"zdaname": "Guynemer", "zdatype": "onstreetTram"}}, {"type": "Feature", "geometry": {"type": "Point", "coordinates": [3.2462523350332955, 48.8001527583126]}, "properties": {"zdaname": "Saint-Rémy-la-Vanne", "zdatype": "railStation"}}, {"type": "Feature", "geometry": {"type": "Point", "coordinates": [2.0951270201534937, 48.901696633093536]}, "properties": {"zdaname": "Saint-Germain-en-Laye", "zdatype": "onstreetTram"}}, {"type": "Feature", "geometry": {"type": "Point", "coordinates": [2.0741876431045982, 48.837240475509844]}, "properties": {"zdaname": "Bailly", "zdatype": "onstreetTram"}}, {"type": "Feature", "geometry": {"type": "Point", "coordinates": [2.074007754555959, 48.799049978835036]}, "properties": {"zdaname": "Saint-Cyr", "zdatype": "onstreetTram"}}, {"type": "Feature", "geometry": {"type": "Point", "coordinates": [2.415780298049394, 48.62197383159923]}, "properties": {"zdaname": "Bois Briard", "zdatype": "onstreetTram"}}, {"type": "Feature", "geometry": {"type": "Point", "coordinates": [2.3737543691479677, 48.65871245948594]}, "properties": {"zdaname": "Amédée Gordini", "zdatype": "onstreetTram"}}, {"type": "Feature", "geometry": {"type": "Point", "coordinates": [2.3406652568852038, 48.868765790452514]}, "properties": {"zdaname": "Bourse", "zdatype": "metroStation"}}, {"type": "Feature", "geometry": {"type": "Point", "coordinates": [2.347527004091025, 48.86731048441692]}, "properties": {"zdaname": "Sentier", "zdatype": "metroStation"}}, {"type": "Feature", "geometry": {"type": "Point", "coordinates": [2.3804732365682444, 48.8640860452892]}, "properties": {"zdaname": "Rue Saint-Maur", "zdatype": "metroStation"}}, {"type": "Feature", "geometry": {"type": "Point", "coordinates": [2.3994075121706335, 48.77299468663358]}, "properties": {"zdaname": "Trois Communes", "zdatype": "onstreetTram"}}, {"type": "Feature", "geometry": {"type": "Point", "coordinates": [2.386206133297131, 48.792849452279896]}, "properties": {"zdaname": "Musée MAC VAL", "zdatype": "onstreetTram"}}, {"type": "Feature", "geometry": {"type": "Point", "coordinates": [2.388401721181462, 48.790189490612036]}, "properties": {"zdaname": "Mairie de Vitry-sur-Seine", "zdatype": "onstreetTram"}}, {"type": "Feature", "geometry": {"type": "Point", "coordinates": [2.4162729224260344, 48.7469230839381]}, "properties": {"zdaname": "Les Saules", "zdatype": "onstreetTram"}}, {"type": "Feature", "geometry": {"type": "Point", "coordinates": [2.4118623707542954, 48.75451961213389]}, "properties": {"zdaname": "Four – Peary", "zdatype": "onstreetTram"}}, {"type": "Feature", "geometry": {"type": "Point", "coordinates": [2.3006465971152728, 48.810403376313666]}, "properties": {"zdaname": "Châtillon – Montrouge", "zdatype": "onstreetTram"}}, {"type": "Feature", "geometry": {"type": "Point", "coordinates": [2.2727819790921813, 48.76378235555504]}, "properties": {"zdaname": "Théâtre La Piscine", "zdatype": "onstreetTram"}}, {"type": "Feature", "geometry": {"type": "Point", "coordinates": [2.282132104041919, 48.83872316050615]}, "properties": {"zdaname": "Lourmel", "zdatype": "metroStation"}}, {"type": "Feature", "geometry": {"type": "Point", "coordinates": [2.3607219700169826, 48.83850345362355]}, "properties": {"zdaname": "Saint-Marcel", "zdatype": "metroStation"}}, {"type": "Feature", "geometry": {"type": "Point", "coordinates": [2.3586053957380626, 48.83556918256957]}, "properties": {"zdaname": "Campo-Formio", "zdatype": "metroStation"}}, {"type": "Feature", "geometry": {"type": "Point", "coordinates": [2.3767377386734245, 48.872106746068454]}, "properties": {"zdaname": "Belleville", "zdatype": "metroStation"}}, {"type": "Feature", "geometry": {"type": "Point", "coordinates": [2.3298315599724946, 48.83135525881832]}, "properties": {"zdaname": "Mouton-Duvernet", "zdatype": "metroStation"}}, {"type": "Feature", "geometry": {"type": "Point", "coordinates": [2.298113531004661, 48.878209745506396]}, "properties": {"zdaname": "Ternes", "zdatype": "metroStation"}}, {"type": "Feature", "geometry": {"type": "Point", "coordinates": [2.2687832444924716, 48.90549075605566]}, "properties": {"zdaname": "Bécon les Bruyères", "zdatype": "railStation"}}, {"type": "Feature", "geometry": {"type": "Point", "coordinates": [2.2397883843980972, 48.9095730221455]}, "properties": {"zdaname": "La Garenne-Colombes", "zdatype": "railStation"}}, {"type": "Feature", "geometry": {"type": "Point", "coordinates": [2.3833278899875503, 48.689704876878096]}, "properties": {"zdaname": "Juvisy", "zdatype": "railStation"}}, {"type": "Feature", "geometry": {"type": "Point", "coordinates": [2.4321242678299977, 48.78883131123265]}, "properties": {"zdaname": "Le Vert de Maisons", "zdatype": "railStation"}}, {"type": "Feature", "geometry": {"type": "Point", "coordinates": [2.2857030102401485, 48.85752326901491]}, "properties": {"zdaname": "Passy", "zdatype": "metroStation"}}, {"type": "Feature", "geometry": {"type": "Point", "coordinates": [2.345199615347686, 48.939674522534]}, "properties": {"zdaname": "Paul Éluard", "zdatype": "onstreetTram"}}, {"type": "Feature", "geometry": {"type": "Point", "coordinates": [2.3207585994326396, 48.951597868253394]}, "properties": {"zdaname": "Les Béatus", "zdatype": "onstreetTram"}}, {"type": "Feature", "geometry": {"type": "Point", "coordinates": [2.180647078454743, 48.78198405709768]}, "properties": {"zdaname": "L’Onde", "zdatype": "onstreetTram"}}, {"type": "Feature", "geometry": {"type": "Point", "coordinates": [2.214402865430403, 48.78360487896489]}, "properties": {"zdaname": "Dewoitine", "zdatype": "onstreetTram"}}, {"type": "Feature", "geometry": {"type": "Point", "coordinates": [2.3850518665367666, 48.9785269625704]}, "properties": {"zdaname": "Lochères", "zdatype": "onstreetTram"}}, {"type": "Feature", "geometry": {"type": "Point", "coordinates": [2.356690550779505, 48.942146820333186]}, "properties": {"zdaname": "Baudelaire", "zdatype": "onstreetTram"}}, {"type": "Feature", "geometry": {"type": "Point", "coordinates": [2.329700931940062, 48.89766336924618]}, "properties": {"zdaname": "Porte de Saint-Ouen", "zdatype": "onstreetTram"}}, {"type": "Feature", "geometry": {"type": "Point", "coordinates": [2.3776491002355034, 48.82435570691832]}, "properties": {"zdaname": "Maryse Bastié", "zdatype": "onstreetTram"}}, {"type": "Feature", "geometry": {"type": "Point", "coordinates": [2.2247022146816047, 48.917588176274904]}, "properties": {"zdaname": "Parc Pierre Lagravère", "zdatype": "onstreetTram"}}, {"type": "Feature", "geometry": {"type": "Point", "coordinates": [2.251328649370428, 48.82150002287736]}, "properties": {"zdaname": "Les Moulineaux", "zdatype": "onstreetTram"}}, {"type": "Feature", "geometry": {"type": "Point", "coordinates": [2.2211704862137505, 48.84995270112987]}, "properties": {"zdaname": "Les Milons", "zdatype": "onstreetTram"}}, {"type": "Feature", "geometry": {"type": "Point", "coordinates": [2.263048600707745, 48.82971226159289]}, "properties": {"zdaname": "Issy – Val de Seine", "zdatype": "onstreetTram"}}, {"type": "Feature", "geometry": {"type": "Point", "coordinates": [2.3450823682976285, 48.8980272598578]}, "properties": {"zdaname": "Porte de Clignancourt", "zdatype": "onstreetTram"}}, {"type": "Feature", "geometry": {"type": "Point", "coordinates": [2.333030173516248, 48.87628693792178]}, "properties": {"zdaname": "Trinité – d’Estienne d’Orves", "zdatype": "metroStation"}}, {"type": "Feature", "geometry": {"type": "Point", "coordinates": [2.445869420359107, 48.80316018957517]}, "properties": {"zdaname": "Maisons-Alfort – Les Juilliottes", "zdatype": "metroStation"}}, {"type": "Feature", "geometry": {"type": "Point", "coordinates": [2.3385182523781984, 48.88969044100326]}, "properties": {"zdaname": "Lamarck – Caulaincourt", "zdatype": "metroStation"}}, {"type": "Feature", "geometry": {"type": "Point", "coordinates": [2.3105202897915316, 48.85769581552947]}, "properties": {"zdaname": "La Tour-Maubourg", "zdatype": "metroStation"}}, {"type": "Feature", "geometry": {"type": "Point", "coordinates": [2.3248737384532254, 48.897555315329356]}, "properties": {"zdaname": "Epinettes – Pouchet", "zdatype": "onstreetTram"}}, {"type": "Feature", "geometry": {"type": "Point", "coordinates": [2.2957271520539453, 48.829828217105906]}, "properties": {"zdaname": "Georges Brassens", "zdatype": "onstreetTram"}}, {"type": "Feature", "geometry": {"type": "Point", "coordinates": [2.3287601965958715, 48.95792884911306]}, "properties": {"zdaname": "Épinay – Villetaneuse", "zdatype": "railStation"}}, {"type": "Feature", "geometry": {"type": "Point", "coordinates": [2.3594893191733894, 48.81907040485323]}, "properties": {"zdaname": "Porte d’Italie", "zdatype": "metroStation"}}, {"type": "Feature", "geometry": {"type": "Point", "coordinates": [2.4101115289447597, 48.92030820630249]}, "properties": {"zdaname": "La Courneuve – 8 Mai 1945", "zdatype": "metroStation"}}, {"type": "Feature", "geometry": {"type": "Point", "coordinates": [2.4108049967015006, 48.84700773108863]}, "properties": {"zdaname": "Porte de Vincennes", "zdatype": "metroStation"}}, {"type": "Feature", "geometry": {"type": "Point", "coordinates": [2.3016498641617082, 48.81073302257494]}, "properties": {"zdaname": "Châtillon-Montrouge", "zdatype": "metroStation"}}, {"type": "Feature", "geometry": {"type": "Point", "coordinates": [2.322395568162884, 48.83853531420648]}, "properties": {"zdaname": "Gaîté", "zdatype": "metroStation"}}, {"type": "Feature", "geometry": {"type": "Point", "coordinates": [2.3271344459675465, 48.82817431479741]}, "properties": {"zdaname": "Alésia", "zdatype": "metroStation"}}, {"type": "Feature", "geometry": {"type": "Point", "coordinates": [2.3213762390463004, 48.882291955535976]}, "properties": {"zdaname": "Rome", "zdatype": "metroStation"}}, {"type": "Feature", "geometry": {"type": "Point", "coordinates": [2.3739347327509446, 48.8614439217946]}, "properties": {"zdaname": "Saint-Ambroise", "zdatype": "metroStation"}}, {"type": "Feature", "geometry": {"type": "Point", "coordinates": [2.2900328376074373, 48.8668483434173]}, "properties": {"zdaname": "Boissière", "zdatype": "metroStation"}}, {"type": "Feature", "geometry": {"type": "Point", "coordinates": [2.3276033420252076, 48.88370306842295]}, "properties": {"zdaname": "Place de Clichy", "zdatype": "metroStation"}}, {"type": "Feature", "geometry": {"type": "Point", "coordinates": [2.2616603926496883, 48.84501107466338]}, "properties": {"zdaname": "Michel-Ange – Molitor", "zdatype": "metroStation"}}, {"type": "Feature", "geometry": {"type": "Point", "coordinates": [2.288210034556874, 48.888511618144996]}, "properties": {"zdaname": "Louise Michel", "zdatype": "metroStation"}}, {"type": "Feature", "geometry": {"type": "Point", "coordinates": [2.3981196285919153, 48.85163021489501]}, "properties": {"zdaname": "Avron", "zdatype": "metroStation"}}, {"type": "Feature", "geometry": {"type": "Point", "coordinates": [2.389325378910096, 48.875247348641416]}, "properties": {"zdaname": "Jourdain", "zdatype": "metroStation"}}, {"type": "Feature", "geometry": {"type": "Point", "coordinates": [2.2691113890218917, 48.84714336145718]}, "properties": {"zdaname": "Église d’Auteuil", "zdatype": "metroStation"}}, {"type": "Feature", "geometry": {"type": "Point", "coordinates": [2.374138505943128, 48.88078973425426]}, "properties": {"zdaname": "Bolivar", "zdatype": "metroStation"}}, {"type": "Feature", "geometry": {"type": "Point", "coordinates": [2.3702630276057626, 48.85622642746082]}, "properties": {"zdaname": "Bréguet-Sabin", "zdatype": "metroStation"}}, {"type": "Feature", "geometry": {"type": "Point", "coordinates": [2.3253210485843328, 48.840935173941624]}, "properties": {"zdaname": "Edgar Quinet", "zdatype": "metroStation"}}, {"type": "Feature", "geometry": {"type": "Point", "coordinates": [2.3895867254870815, 48.83898699685513]}, "properties": {"zdaname": "Dugommier", "zdatype": "metroStation"}}, {"type": "Feature", "geometry": {"type": "Point", "coordinates": [2.3657778346162357, 48.90670909310837]}, "properties": {"zdaname": "Front Populaire", "zdatype": "metroStation"}}, {"type": "Feature", "geometry": {"type": "Point", "coordinates": [2.354864434041354, 48.84612558033094]}, "properties": {"zdaname": "Jussieu", "zdatype": "metroStation"}}, {"type": "Feature", "geometry": {"type": "Point", "coordinates": [2.301117500243332, 48.86468319866767]}, "properties": {"zdaname": "Alma – Marceau", "zdatype": "metroStation"}}, {"type": "Feature", "geometry": {"type": "Point", "coordinates": [2.3620315696347145, 48.878441528390574]}, "properties": {"zdaname": "Château Landon", "zdatype": "metroStation"}}, {"type": "Feature", "geometry": {"type": "Point", "coordinates": [2.3804117376341654, 48.869256934319765]}, "properties": {"zdaname": "Couronnes", "zdatype": "metroStation"}}, {"type": "Feature", "geometry": {"type": "Point", "coordinates": [2.370792504301474, 48.88235501489215]}, "properties": {"zdaname": "Jaurès", "zdatype": "metroStation"}}, {"type": "Feature", "geometry": {"type": "Point", "coordinates": [2.3434851554108596, 48.91976381223345]}, "properties": {"zdaname": "Carrefour Pleyel", "zdatype": "metroStation"}}, {"type": "Feature", "geometry": {"type": "Point", "coordinates": [1.6686589910697005, 48.829312382003984]}, "properties": {"zdaname": "Tacoignières – Richebourg", "zdatype": "railStation"}}, {"type": "Feature", "geometry": {"type": "Point", "coordinates": [2.2210499734890057, 48.871689477670024]}, "properties": {"zdaname": "Suresnes Mont Valérien", "zdatype": "railStation"}}, {"type": "Feature", "geometry": {"type": "Point", "coordinates": [2.069081776215293, 48.53568307445009]}, "properties": {"zdaname": "Sermaise", "zdatype": "railStation"}}, {"type": "Feature", "geometry": {"type": "Point", "coordinates": [2.157213287033919, 48.937690749630335]}, "properties": {"zdaname": "Sartrouville", "zdatype": "railStation"}}, {"type": "Feature", "geometry": {"type": "Point", "coordinates": [2.816506992659391, 48.38264263708523]}, "properties": {"zdaname": "Saint-Mammès", "zdatype": "railStation"}}, {"type": "Feature", "geometry": {"type": "Point", "coordinates": [2.5426101195204436, 48.56502089598088]}, "properties": {"zdaname": "Saint-Fargeau", "zdatype": "railStation"}}, {"type": "Feature", "geometry": {"type": "Point", "coordinates": [3.255327221609779, 48.529148896424836]}, "properties": {"zdaname": "Sainte-Colombe Septveilles", "zdatype": "railStation"}}, {"type": "Feature", "geometry": {"type": "Point", "coordinates": [2.270467157461876, 48.83887742994718]}, "properties": {"zdaname": "Pont du Garigliano – Hôpital Européen G. Pompidou", "zdatype": "railStation"}}, {"type": "Feature", "geometry": {"type": "Point", "coordinates": [2.69011253350318, 48.77076571895002]}, "properties": {"zdaname": "Ozoir-la-Ferrière", "zdatype": "railStation"}}, {"type": "Feature", "geometry": {"type": "Point", "coordinates": [2.2799487799608054, 49.132827821229725]}, "properties": {"zdaname": "Nointel – Mours", "zdatype": "railStation"}}, {"type": "Feature", "geometry": {"type": "Point", "coordinates": [3.0430589858913453, 48.81370021201992]}, "properties": {"zdaname": "Mouroux", "zdatype": "railStation"}}, {"type": "Feature", "geometry": {"type": "Point", "coordinates": [2.8880691960093525, 48.61408914934274]}, "properties": {"zdaname": "Mormant", "zdatype": "railStation"}}, {"type": "Feature", "geometry": {"type": "Point", "coordinates": [2.8004527941962114, 48.37789339275472]}, "properties": {"zdaname": "Moret – Veneux-les-Sablons", "zdatype": "railStation"}}, {"type": "Feature", "geometry": {"type": "Point", "coordinates": [2.2054316203314066, 49.077753071836746]}, "properties": {"zdaname": "Mériel", "zdatype": "railStation"}}, {"type": "Feature", "geometry": {"type": "Point", "coordinates": [2.896889346738567, 48.37862829627916]}, "properties": {"zdaname": "La Grande-Paroisse", "zdatype": "railStation"}}, {"type": "Feature", "geometry": {"type": "Point", "coordinates": [2.352260288141761, 48.48549337616188]}, "properties": {"zdaname": "La Ferté-Alais", "zdatype": "railStation"}}, {"type": "Feature", "geometry": {"type": "Point", "coordinates": [2.257883547622023, 48.81933737870203]}, "properties": {"zdaname": "Issy", "zdatype": "railStation"}}, {"type": "Feature", "geometry": {"type": "Point", "coordinates": [2.0597028635042167, 48.37427743758644]}, "properties": {"zdaname": "Guillerval", "zdatype": "railStation"}}, {"type": "Feature", "geometry": {"type": "Point", "coordinates": [2.463285071466548, 48.60581694047945]}, "properties": {"zdaname": "Essonnes Robinson", "zdatype": "railStation"}}, {"type": "Feature", "geometry": {"type": "Point", "coordinates": [2.1226490648637872, 49.05504799021741]}, "properties": {"zdaname": "Gare Épluches", "zdatype": "railStation"}}, {"type": "Feature", "geometry": {"type": "Point", "coordinates": [2.306793393920284, 48.97287556014462]}, "properties": {"zdaname": "Enghien-les-Bains", "zdatype": "railStation"}}, {"type": "Feature", "geometry": {"type": "Point", "coordinates": [2.6184894184618837, 48.805877340669035]}, "properties": {"zdaname": "Émerainville – Pontault-Combault", "zdatype": "railStation"}}, {"type": "Feature", "geometry": {"type": "Point", "coordinates": [2.2234625238542307, 48.582715781664064]}, "properties": {"zdaname": "Égly", "zdatype": "railStation"}}, {"type": "Feature", "geometry": {"type": "Point", "coordinates": [3.062662265721285, 49.091889744487816]}, "properties": {"zdaname": "Crouy-sur-Ourcq", "zdatype": "railStation"}}, {"type": "Feature", "geometry": {"type": "Point", "coordinates": [2.027614405043223, 48.97035252474219]}, "properties": {"zdaname": "Chanteloup-les-Vignes", "zdatype": "railStation"}}, {"type": "Feature", "geometry": {"type": "Point", "coordinates": [2.338183095319763, 48.89781846174678]}, "properties": {"zdaname": "Angélique Compoint – Porte de Montmartre", "zdatype": "onstreetTram"}}, {"type": "Feature", "geometry": {"type": "Point", "coordinates": [2.343142344320809, 48.956650602329084]}, "properties": {"zdaname": "Pablo Neruda", "zdatype": "onstreetTram"}}, {"type": "Feature", "geometry": {"type": "Point", "coordinates": [2.168824623180724, 48.80561113765101]}, "properties": {"zdaname": "Viroflay – Rive Droite", "zdatype": "onstreetTram"}}, {"type": "Feature", "geometry": {"type": "Point", "coordinates": [2.3244387179256543, 48.877470853669635]}, "properties": {"zdaname": "Gare Saint-Lazare", "zdatype": "railStation"}}, {"type": "Feature", "geometry": {"type": "Point", "coordinates": [2.312278371096819, 48.780259872103485]}, "properties": {"zdaname": "Bourg-la-Reine", "zdatype": "railStation"}}, {"type": "Feature", "geometry": {"type": "Point", "coordinates": [2.0957860751597286, 49.04672888045281]}, "properties": {"zdaname": "Pontoise", "zdatype": "railStation"}}, {"type": "Feature", "geometry": {"type": "Point", "coordinates": [2.3126485359245685, 48.86270845652009]}, "properties": {"zdaname": "Invalides", "zdatype": "railStation"}}, {"type": "Feature", "geometry": {"type": "Point", "coordinates": [2.3484951102415232, 48.87056238091381]}, "properties": {"zdaname": "Bonne Nouvelle", "zdatype": "metroStation"}}, {"type": "Feature", "geometry": {"type": "Point", "coordinates": [2.2939251910867187, 48.70236853080704]}, "properties": {"zdaname": "Longjumeau", "zdatype": "onstreetTram"}}, {"type": "Feature", "geometry": {"type": "Point", "coordinates": [2.3172790098309317, 48.68617887111782]}, "properties": {"zdaname": "Gravigny Balizy", "zdatype": "onstreetTram"}}, {"type": "Feature", "geometry": {"type": "Point", "coordinates": [2.3579801517784578, 48.95269324789688]}, "properties": {"zdaname": "Petit Pierrefitte", "zdatype": "onstreetTram"}}, {"type": "Feature", "geometry": {"type": "Point", "coordinates": [2.1965103604389777, 49.00774408588278]}, "properties": {"zdaname": "Montigny – Beauchamp", "zdatype": "railStation"}}, {"type": "Feature", "geometry": {"type": "Point", "coordinates": [2.288317930094864, 48.8836108922126]}, "properties": {"zdaname": "Thérèse Pierre", "zdatype": "onstreetTram"}}, {"type": "Feature", "geometry": {"type": "Point", "coordinates": [2.2807748741184275, 48.70800165365543]}, "properties": {"zdaname": "Champlan", "zdatype": "onstreetTram"}}, {"type": "Feature", "geometry": {"type": "Point", "coordinates": [2.443813957318875, 48.90653928768912]}, "properties": {"zdaname": "Hôtel de Ville de Bobigny", "zdatype": "onstreetTram"}}, {"type": "Feature", "geometry": {"type": "Point", "coordinates": [2.431289719358555, 48.91408856006236]}, "properties": {"zdaname": "Gaston Roulaud", "zdatype": "onstreetTram"}}, {"type": "Feature", "geometry": {"type": "Point", "coordinates": [2.300962623547677, 48.93311167285403]}, "properties": {"zdaname": "Timbaud", "zdatype": "onstreetTram"}}, {"type": "Feature", "geometry": {"type": "Point", "coordinates": [2.3396657936311156, 48.935777235174335]}, "properties": {"zdaname": "L’Île-Saint-Denis", "zdatype": "onstreetTram"}}, {"type": "Feature", "geometry": {"type": "Point", "coordinates": [2.2886413669032994, 48.93180713746827]}, "properties": {"zdaname": "Le Luth", "zdatype": "onstreetTram"}}, {"type": "Feature", "geometry": {"type": "Point", "coordinates": [2.4374909799615168, 48.90967530314551]}, "properties": {"zdaname": "La Ferme", "zdatype": "onstreetTram"}}, {"type": "Feature", "geometry": {"type": "Point", "coordinates": [2.4689222058268467, 49.26418103008018]}, "properties": {"zdaname": "Creil", "zdatype": "railStation"}}, {"type": "Feature", "geometry": {"type": "Point", "coordinates": [2.8379866073485736, 49.200710995368944]}, "properties": {"zdaname": "Ormoy-Villers", "zdatype": "railStation"}}, {"type": "Feature", "geometry": {"type": "Point", "coordinates": [2.390655421722269, 48.97715273204428]}, "properties": {"zdaname": "Garges – Sarcelles", "zdatype": "onstreetTram"}}, {"type": "Feature", "geometry": {"type": "Point", "coordinates": [2.3917784262687625, 48.95473095417471]}, "properties": {"zdaname": "Stains la Cerisaie", "zdatype": "onstreetTram"}}, {"type": "Feature", "geometry": {"type": "Point", "coordinates": [2.4879561831998265, 48.893084676795944]}, "properties": {"zdaname": "Remise à Jorelle", "zdatype": "onstreetTram"}}, {"type": "Feature", "geometry": {"type": "Point", "coordinates": [2.556068933536934, 48.90092867240987]}, "properties": {"zdaname": "Notre-Dame-des-Anges", "zdatype": "onstreetTram"}}, {"type": "Feature", "geometry": {"type": "Point", "coordinates": [2.546391762521756, 48.907870955226805]}, "properties": {"zdaname": "Clichy-sous-Bois – Mairie", "zdatype": "onstreetTram"}}, {"type": "Feature", "geometry": {"type": "Point", "coordinates": [2.516465926853333, 48.90724129485055]}, "properties": {"zdaname": "Gargan", "zdatype": "onstreetTram"}}, {"type": "Feature", "geometry": {"type": "Point", "coordinates": [2.5119521287782938, 48.90268153115973]}, "properties": {"zdaname": "Les Pavillons-sous-Bois", "zdatype": "onstreetTram"}}, {"type": "Feature", "geometry": {"type": "Point", "coordinates": [2.3264958011863235, 48.8512484835374]}, "properties": {"zdaname": "Sèvres – Babylone", "zdatype": "metroStation"}}, {"type": "Feature", "geometry": {"type": "Point", "coordinates": [2.3673247518159375, 48.96014389463358]}, "properties": {"zdaname": "Pierrefitte – Stains", "zdatype": "onstreetTram"}}, {"type": "Feature", "geometry": {"type": "Point", "coordinates": [2.9051922787891398, 48.859563576644945]}, "properties": {"zdaname": "Crécy-la-Chapelle", "zdatype": "onstreetTram"}}, {"type": "Feature", "geometry": {"type": "Point", "coordinates": [2.355258704742215, 48.75257246308924]}, "properties": {"zdaname": "Porte de Rungis", "zdatype": "onstreetTram"}}, {"type": "Feature", "geometry": {"type": "Point", "coordinates": [2.3716860269811044, 48.714478509986]}, "properties": {"zdaname": "Porte de l’Essonne", "zdatype": "onstreetTram"}}, {"type": "Feature", "geometry": {"type": "Point", "coordinates": [2.3713723806102593, 48.73377015054854]}, "properties": {"zdaname": "Coeur d’Orly", "zdatype": "onstreetTram"}}, {"type": "Feature", "geometry": {"type": "Point", "coordinates": [2.238164153990337, 48.89190891954084]}, "properties": {"zdaname": "La Défense", "zdatype": "metroStation"}}, {"type": "Feature", "geometry": {"type": "Point", "coordinates": [2.3764515251130836, 48.8299615538608]}, "properties": {"zdaname": "Bibliothèque François Mitterrand", "zdatype": "metroStation"}}, {"type": "Feature", "geometry": {"type": "Point", "coordinates": [2.3338357484892325, 48.87299984556772]}, "properties": {"zdaname": "Chaussée d’Antin – La Fayette", "zdatype": "metroStation"}}, {"type": "Feature", "geometry": {"type": "Point", "coordinates": [2.3593505492004216, 48.93677436491746]}, "properties": {"zdaname": "Basilique de Saint-Denis", "zdatype": "metroStation"}}, {"type": "Feature", "geometry": {"type": "Point", "coordinates": [2.4023208846045554, 48.837036730610215]}, "properties": {"zdaname": "Michel Bizot", "zdatype": "metroStation"}}, {"type": "Feature", "geometry": {"type": "Point", "coordinates": [2.410704119548984, 48.8535185360263]}, "properties": {"zdaname": "Porte de Montreuil", "zdatype": "metroStation"}}, {"type": "Feature", "geometry": {"type": "Point", "coordinates": [2.39052097382167, 48.858130017792824]}, "properties": {"zdaname": "Philippe Auguste", "zdatype": "metroStation"}}, {"type": "Feature", "geometry": {"type": "Point", "coordinates": [2.413091872131312, 48.89319981106834]}, "properties": {"zdaname": "Église de Pantin", "zdatype": "metroStation"}}, {"type": "Feature", "geometry": {"type": "Point", "coordinates": [2.3400863005276764, 48.85205269126925]}, "properties": {"zdaname": "Odéon", "zdatype": "metroStation"}}, {"type": "Feature", "geometry": {"type": "Point", "coordinates": [2.4159148182488246, 48.86526252739102]}, "properties": {"zdaname": "Gallieni", "zdatype": "metroStation"}}, {"type": "Feature", "geometry": {"type": "Point", "coordinates": [2.3709148203904267, 48.86997183478233]}, "properties": {"zdaname": "Goncourt", "zdatype": "metroStation"}}, {"type": "Feature", "geometry": {"type": "Point", "coordinates": [2.356615300956008, 48.86545307716206]}, "properties": {"zdaname": "Arts et Métiers", "zdatype": "metroStation"}}, {"type": "Feature", "geometry": {"type": "Point", "coordinates": [2.2699904278283123, 48.8554048866532]}, "properties": {"zdaname": "Ranelagh", "zdatype": "metroStation"}}, {"type": "Feature", "geometry": {"type": "Point", "coordinates": [2.373709389692876, 48.888125994577756]}, "properties": {"zdaname": "Riquet", "zdatype": "metroStation"}}, {"type": "Feature", "geometry": {"type": "Point", "coordinates": [2.2858606121719838, 48.869890298547546]}, "properties": {"zdaname": "Victor Hugo", "zdatype": "metroStation"}}, {"type": "Feature", "geometry": {"type": "Point", "coordinates": [2.307184423479289, 48.847190023788144]}, "properties": {"zdaname": "Ségur", "zdatype": "metroStation"}}, {"type": "Feature", "geometry": {"type": "Point", "coordinates": [2.395861170095949, 48.83954947354111]}, "properties": {"zdaname": "Daumesnil", "zdatype": "metroStation"}}, {"type": "Feature", "geometry": {"type": "Point", "coordinates": [2.271904762259129, 48.88129083793358]}, "properties": {"zdaname": "Les Sablons", "zdatype": "metroStation"}}, {"type": "Feature", "geometry": {"type": "Point", "coordinates": [2.2778990295665795, 48.863987762213526]}, "properties": {"zdaname": "Rue de la Pompe", "zdatype": "metroStation"}}, {"type": "Feature", "geometry": {"type": "Point", "coordinates": [2.3141656797998125, 48.867573639135735]}, "properties": {"zdaname": "Champs-Élysées – Clemenceau", "zdatype": "metroStation"}}, {"type": "Feature", "geometry": {"type": "Point", "coordinates": [2.237924450624873, 48.831875217420304]}, "properties": {"zdaname": "Billancourt", "zdatype": "metroStation"}}, {"type": "Feature", "geometry": {"type": "Point", "coordinates": [2.3557026936305494, 48.831227614524195]}, "properties": {"zdaname": "Place d’Italie", "zdatype": "metroStation"}}, {"type": "Feature", "geometry": {"type": "Point", "coordinates": [2.379349760108144, 48.88516061413552]}, "properties": {"zdaname": "Laumière", "zdatype": "metroStation"}}, {"type": "Feature", "geometry": {"type": "Point", "coordinates": [2.3289434435136624, 48.84214271190284]}, "properties": {"zdaname": "Vavin", "zdatype": "metroStation"}}, {"type": "Feature", "geometry": {"type": "Point", "coordinates": [2.327483258626126, 48.8930014419616]}, "properties": {"zdaname": "Guy Môquet", "zdatype": "metroStation"}}, {"type": "Feature", "geometry": {"type": "Point", "coordinates": [2.5426332915404406, 48.82324782508941]}, "properties": {"zdaname": "Villiers-sur-Marne – Le Plessis-Trévise", "zdatype": "railStation"}}, {"type": "Feature", "geometry": {"type": "Point", "coordinates": [2.6032084654659036, 48.95316210684004]}, "properties": {"zdaname": "Villeparisis – Mitry-le-Neuf", "zdatype": "railStation"}}, {"type": "Feature", "geometry": {"type": "Point", "coordinates": [2.4615334303210603, 48.592810667213236]}, "properties": {"zdaname": "Villabé", "zdatype": "railStation"}}, {"type": "Feature", "geometry": {"type": "Point", "coordinates": [1.963016916477464, 49.00734770817908]}, "properties": {"zdaname": "Vaux-sur-Seine", "zdatype": "railStation"}}, {"type": "Feature", "geometry": {"type": "Point", "coordinates": [2.2294508368143178, 49.02171832893956]}, "properties": {"zdaname": "Vaucelles", "zdatype": "railStation"}}, {"type": "Feature", "geometry": {"type": "Point", "coordinates": [2.7358608993040687, 48.181172627796926]}, "properties": {"zdaname": "Souppes – Château-Landon", "zdatype": "railStation"}}, {"type": "Feature", "geometry": {"type": "Point", "coordinates": [2.2638203723600148, 48.970874923600185]}, "properties": {"zdaname": "Sannois", "zdatype": "railStation"}}, {"type": "Feature", "geometry": {"type": "Point", "coordinates": [2.4857557995437456, 48.87007065119525]}, "properties": {"zdaname": "Rosny-sous-Bois", "zdatype": "railStation"}}, {"type": "Feature", "geometry": {"type": "Point", "coordinates": [1.943537605860178, 48.831921592927266]}, "properties": {"zdaname": "Plaisir – Grignon", "zdatype": "railStation"}}, {"type": "Feature", "geometry": {"type": "Point", "coordinates": [1.703030147760782, 48.82662291018976]}, "properties": {"zdaname": "Orgerus – Béhoust", "zdatype": "railStation"}}, {"type": "Feature", "geometry": {"type": "Point", "coordinates": [2.3228169092936026, 49.06615306939867]}, "properties": {"zdaname": "Montsoult – Maffliers", "zdatype": "railStation"}}, {"type": "Feature", "geometry": {"type": "Point", "coordinates": [2.9425351924603453, 48.379594877483626]}, "properties": {"zdaname": "Montereau", "zdatype": "railStation"}}, {"type": "Feature", "geometry": {"type": "Point", "coordinates": [2.059634615366267, 48.98685791631112]}, "properties": {"zdaname": "Maurecourt", "zdatype": "railStation"}}, {"type": "Feature", "geometry": {"type": "Point", "coordinates": [2.3138887071722145, 48.92068614029697]}, "properties": {"zdaname": "Les Grésillons", "zdatype": "railStation"}}, {"type": "Feature", "geometry": {"type": "Point", "coordinates": [2.1382299869494608, 48.842620684218865]}, "properties": {"zdaname": "La Celle-Saint-Cloud", "zdatype": "railStation"}}, {"type": "Feature", "geometry": {"type": "Point", "coordinates": [3.007871639575125, 48.99837487688993]}, "properties": {"zdaname": "Isles – Armentières – Congis", "zdatype": "railStation"}}, {"type": "Feature", "geometry": {"type": "Point", "coordinates": [2.1870927388977117, 48.83824994444765]}, "properties": {"zdaname": "Garches – Marnes-la-Coquette", "zdatype": "railStation"}}, {"type": "Feature", "geometry": {"type": "Point", "coordinates": [2.1410779873272663, 49.06912777550041]}, "properties": {"zdaname": "Chaponval", "zdatype": "railStation"}}, {"type": "Feature", "geometry": {"type": "Point", "coordinates": [2.242987667830016, 49.136089580289706]}, "properties": {"zdaname": "Champagne-sur-Oise", "zdatype": "railStation"}}, {"type": "Feature", "geometry": {"type": "Point", "coordinates": [1.4434908820539951, 48.92526647192278]}, "properties": {"zdaname": "Bueil", "zdatype": "railStation"}}, {"type": "Feature", "geometry": {"type": "Point", "coordinates": [2.691869674891787, 48.33245101590995]}, "properties": {"zdaname": "Bourron-Marlotte – Grez", "zdatype": "railStation"}}, {"type": "Feature", "geometry": {"type": "Point", "coordinates": [1.3862644546684464, 48.18642212502705]},